"","census_id","muniname.x","statename.x","yr_incorp","muniname.y","statefips","statecode","statename.y","stateabb","countyfips","countycode","countyname","placefips","unitcode","govtype","lat","lon"
"1","22200920100000","CITY OF WATERTOWN TOWN","MASSACHUSETTS",1630,"CITY OF WATERTOWN TOWN","25","22","MASSACHUSETTS","MA","017","009","MIDDLESEX","73440","201",2,42.3699733,-71.1774323
"2","22201110200000","CITY OF WEYMOUTH TOWN","MASSACHUSETTS",1635,"CITY OF WEYMOUTH TOWN","25","22","MASSACHUSETTS","MA","021","011","NORFOLK","78972","102",2,42.2069012,-70.944428
"3","22200120100000","CITY OF BARNSTABLE","MASSACHUSETTS",1638,"CITY OF BARNSTABLE","25","22","MASSACHUSETTS","MA","001","001","BARNSTABLE","03690","201",2,41.6679499,-70.3573273
"4","22201110100000","CITY OF BRAINTREE TOWN","MASSACHUSETTS",1640,"CITY OF BRAINTREE TOWN","25","22","MASSACHUSETTS","MA","021","011","NORFOLK","07740","101",2,42.2038447,-71.0022177
"5","33200100100000","CITY OF ALBANY","NEW YORK",1652,"CITY OF ALBANY","36","33","NEW YORK","NY","001","001","ALBANY","01000","001",2,42.6663959,-73.798682
"6","33203100100000","CITY OF NEW YORK","NEW YORK",1652,"CITY OF NEW YORK","36","33","NEW YORK","NY","061","031","NEW YORK CITY","51000","001",2,40.6625936,-73.9386949
"7","22200510100000","CITY OF AMESBURY","MASSACHUSETTS",1668,"CITY OF AMESBURY","25","22","MASSACHUSETTS","MA","009","005","ESSEX","01260","101",2,42.8529481,-70.9446321
"8","39205100100000","CITY OF PHILADELPHIA","PENNSYLVANIA",1684,"CITY OF PHILADELPHIA","42","39","PENNSYLVANIA","PA","101","051","PHILADELPHIA CITY","60000","001",2,40.007636,-75.1339447
"9","39201500300000","CITY OF COATESVILLE","PENNSYLVANIA",1687,"CITY OF COATESVILLE","42","39","PENNSYLVANIA","PA","029","015","CHESTER","14712","003",2,39.9849148,-75.819824
"10","31200300300000","CITY OF BURLINGTON","NEW JERSEY",1693,"CITY OF BURLINGTON","34","31","NEW JERSEY","NJ","005","003","BURLINGTON","08920","003",2,40.0784541,-74.85236
"11","39202300300000","CITY OF CHESTER","PENNSYLVANIA",1701,"CITY OF CHESTER","42","39","PENNSYLVANIA","PA","045","023","DELAWARE","13208","003",2,39.8456275,-75.3718342
"12","21200200100000","CITY OF ANNAPOLIS","MARYLAND",1708,"CITY OF ANNAPOLIS","24","21","MARYLAND","MD","003","002","ANNE ARUNDEL","01600","001",2,38.9706731,-76.503936
"13","19203500400000","CITY OF NATCHITOCHES","LOUISIANA",1714,"CITY OF NATCHITOCHES","22","19","LOUISIANA","LA","069","035","NATCHITOCHES","53545","004",2,31.7314762,-93.0975146
"14","19204900700000","CITY OF OPELOUSAS","LOUISIANA",1720,"CITY OF OPELOUSAS","22","19","LOUISIANA","LA","097","049","ST LANDRY","58045","007",2,30.5252141,-92.0816209
"15","39200900100000","BOROUGH OF BRISTOL","PENNSYLVANIA",1720,"BOROUGH OF BRISTOL","42","39","PENNSYLVANIA","PA","017","009","BUCKS","08760","001",2,40.1029128,-74.8529694
"16","34202500300000","CITY OF NEW BERN","NORTH CAROLINA",1723,"CITY OF NEW BERN","37","34","NORTH CAROLINA","NC","049","025","CRAVEN","46340","003",2,35.0958847,-77.0721187
"17","22200520100000","CITY OF METHUEN TOWN","MASSACHUSETTS",1725,"CITY OF METHUEN TOWN","25","22","MASSACHUSETTS","MA","009","005","ESSEX","40710","201",2,42.7339839,-71.1888295
"18","47212200100000","CITY OF NORFOLK","VIRGINIA",1736,"CITY OF NORFOLK","51","47","VIRGINIA","VA","710","122","NORFOLK CITY","57000","001",2,36.9233401,-76.2456337
"19","39203600900000","CITY OF LANCASTER","PENNSYLVANIA",1742,"CITY OF LANCASTER","42","39","PENNSYLVANIA","PA","071","036","LANCASTER","41216","009",2,40.0420462,-76.3011918
"20","47212700100000","CITY OF RICHMOND","VIRGINIA",1742,"CITY OF RICHMOND","51","47","VIRGINIA","VA","760","127","RICHMOND CITY","67000","001",2,37.5294423,-77.4755889
"21","47207680100000","TOWN OF DUMFRIES","VIRGINIA",1749,"TOWN OF DUMFRIES","51","47","VIRGINIA","VA","153","076","PRINCE WILLIAM","23760","801",2,38.5669841,-77.3233531
"22","34206800300000","TOWN OF HILLSBOROUGH","NORTH CAROLINA",1754,"TOWN OF HILLSBOROUGH","37","34","NORTH CAROLINA","NC","135","068","ORANGE","31620","003",2,36.040621,-79.0972425
"23","34204200200000","TOWN OF HALIFAX","NORTH CAROLINA",1757,"TOWN OF HALIFAX","37","34","NORTH CAROLINA","NC","083","042","HALIFAX","28920","002",2,36.3254954,-77.5900951
"24","34207200100000","TOWN OF HERTFORD","NORTH CAROLINA",1758,"TOWN OF HERTFORD","37","34","NORTH CAROLINA","NC","143","072","PERQUIMANS","30900","001",2,36.1813355,-76.4674996
"25","34203300500000","TOWN OF TARBORO","NORTH CAROLINA",1760,"TOWN OF TARBORO","37","34","NORTH CAROLINA","NC","065","033","EDGECOMBE","66700","005",2,35.9045952,-77.5562993
"26","34202600100000","CITY OF FAYETTEVILLE","NORTH CAROLINA",1762,"CITY OF FAYETTEVILLE","37","34","NORTH CAROLINA","NC","051","026","CUMBERLAND","22920","001",2,35.084905,-78.977191
"27","34205400100000","CITY OF KINSTON","NORTH CAROLINA",1762,"CITY OF KINSTON","37","34","NORTH CAROLINA","NC","107","054","LENOIR","35920","001",2,35.274723,-77.5940574
"28","49201400200000","CITY OF ROMNEY","WEST VIRGINIA",1762,"CITY OF ROMNEY","54","49","WEST VIRGINIA","WV","027","014","HAMPSHIRE","70084","002",2,39.3455272,-78.7563737
"29","49201900500000","CITY OF SHEPHERDSTOWN","WEST VIRGINIA",1762,"CITY OF SHEPHERDSTOWN","54","49","WEST VIRGINIA","WV","037","019","JEFFERSON","73468","005",2,39.4319047,-77.8046511
"30","34204600400000","TOWN OF WINTON","NORTH CAROLINA",1766,"TOWN OF WINTON","37","34","NORTH CAROLINA","NC","091","046","HERTFORD","75080","004",2,36.3898709,-76.9350102
"31","34200800900000","TOWN OF WINDSOR","NORTH CAROLINA",1768,"TOWN OF WINDSOR","37","34","NORTH CAROLINA","NC","015","008","BERTIE","74680","009",2,35.9930237,-76.939927
"32","34206000100000","CITY OF CHARLOTTE","NORTH CAROLINA",1768,"CITY OF CHARLOTTE","37","34","NORTH CAROLINA","NC","119","060","MECKLENBURG","12000","001",2,35.2082993,-80.8303106
"33","34208000800000","CITY OF SALISBURY","NORTH CAROLINA",1770,"CITY OF SALISBURY","37","34","NORTH CAROLINA","NC","159","080","ROWAN","58860","008",2,35.6657284,-80.4903911
"34","34207850100000","TOWN OF LUMBER BRIDGE","NORTH CAROLINA",1772,"TOWN OF LUMBER BRIDGE","37","34","NORTH CAROLINA","NC","155","078","ROBESON","39680","501",2,34.8898627,-79.0723784
"35","34200900400000","TOWN OF ELIZABETHTOWN","NORTH CAROLINA",1773,"TOWN OF ELIZABETHTOWN","37","34","NORTH CAROLINA","NC","017","009","BLADEN","20600","004",2,34.6218796,-78.6073821
"36","34206500300000","CITY OF WILMINGTON","NORTH CAROLINA",1773,"CITY OF WILMINGTON","37","34","NORTH CAROLINA","NC","129","065","NEW HANOVER","74440","003",2,34.2099732,-77.8866653
"37","22200730100000","CITY OF WEST SPRINGFIELD TOWN","MASSACHUSETTS",1774,"CITY OF WEST SPRINGFIELD TOWN","25","22","MASSACHUSETTS","MA","013","007","HAMPDEN","77890","301",2,42.1253245,-72.6502406
"38","34207400600000","CITY OF GREENVILLE","NORTH CAROLINA",1774,"CITY OF GREENVILLE","37","34","NORTH CAROLINA","NC","147","074","PITT","28080","006",2,35.5942921,-77.3760216
"39","22200610100000","CITY OF GREENFIELD TOWN","MASSACHUSETTS",1775,"CITY OF GREENFIELD TOWN","25","22","MASSACHUSETTS","MA","011","006","FRANKLIN","27100","101",2,42.6140256,-72.5985637
"40","22200710100000","CITY OF PALMER TOWN","MASSACHUSETTS",1775,"CITY OF PALMER TOWN","25","22","MASSACHUSETTS","MA","013","007","HAMPDEN","52144","101",2,42.1887958,-72.3111544
"41","34200700500000","CITY OF WASHINGTON","NORTH CAROLINA",1776,"CITY OF WASHINGTON","37","34","NORTH CAROLINA","NC","013","007","BEAUFORT","71220","005",2,35.5578814,-77.0543313
"42","49203300100000","TOWN OF BATH","WEST VIRGINIA",1776,"TOWN OF BATH","54","49","WEST VIRGINIA","WV","065","033","MORGAN","04876","001",2,39.6247218,-78.2275338
"43","08200100500000","CITY OF DOVER","DELAWARE",1777,"CITY OF DOVER","10","08","DELAWARE","DE","001","001","KENT","21200","005",2,39.1610682,-75.5202073
"44","34205100900000","TOWN OF SMITHFIELD","NORTH CAROLINA",1777,"TOWN OF SMITHFIELD","37","34","NORTH CAROLINA","NC","101","051","JOHNSTON","62520","009",2,35.5132177,-78.3495681
"45","49201600100000","TOWN OF MOOREFIELD","WEST VIRGINIA",1777,"TOWN OF MOOREFIELD","54","49","WEST VIRGINIA","WV","031","016","HARDY","55588","001",2,39.0674739,-78.9622824
"46","22201120100000","CITY OF FRANKLIN TOWN","MASSACHUSETTS",1778,"CITY OF FRANKLIN TOWN","25","22","MASSACHUSETTS","MA","021","011","NORFOLK","25172","201",2,42.0862129,-71.4112801
"47","49200200200000","CITY OF MARTINSBURG","WEST VIRGINIA",1778,"CITY OF MARTINSBURG","54","49","WEST VIRGINIA","WV","003","002","BERKELEY","52060","002",2,39.4582383,-77.9776404
"48","34203500300000","TOWN OF LOUISBURG","NORTH CAROLINA",1779,"TOWN OF LOUISBURG","37","34","NORTH CAROLINA","NC","069","035","FRANKLIN","39360","003",2,36.0986172,-78.3008696
"49","34205900800000","TOWN OF WILLIAMSTON","NORTH CAROLINA",1779,"TOWN OF WILLIAMSTON","37","34","NORTH CAROLINA","NC","117","059","MARTIN","74220","008",2,35.8465403,-77.0660764
"50","34209300400000","TOWN OF WARRENTON","NORTH CAROLINA",1779,"TOWN OF WARRENTON","37","34","NORTH CAROLINA","NC","185","093","WARREN","71100","004",2,36.3994102,-78.1574184
"51","43209000200000","TOWN OF JONESBOROUGH","TENNESSEE",1779,"TOWN OF JONESBOROUGH","47","43","TENNESSEE","TN","179","090","WASHINGTON","38540","002",2,36.2958605,-82.4765555
"52","47210100100000","CITY OF ALEXANDRIA","VIRGINIA",1779,"CITY OF ALEXANDRIA","51","47","VIRGINIA","VA","510","101","ALEXANDRIA CITY","01000","001",2,38.818453,-77.0862039
"53","47213500100000","CITY OF WINCHESTER","VIRGINIA",1779,"CITY OF WINCHESTER","51","47","VIRGINIA","VA","840","135","WINCHESTER CITY","86720","001",2,39.1735054,-78.1746436
"54","11215700200000","CITY OF WASHINGTON","GEORGIA",1780,"CITY OF WASHINGTON","13","11","GEORGIA","GA","317","157","WILKES","80704","002",2,33.7355385,-82.7425865
"55","34206400500000","TOWN OF NASHVILLE","NORTH CAROLINA",1780,"TOWN OF NASHVILLE","37","34","NORTH CAROLINA","NC","127","064","NASH","46000","005",2,35.9692631,-77.9554434
"56","47211300100000","CITY OF FREDERICKSBURG","VIRGINIA",1781,"CITY OF FREDERICKSBURG","51","47","VIRGINIA","VA","630","113","FREDERICKSBURG CITY","29744","001",2,38.2991926,-77.4871505
"57","39202100200000","BOROUGH OF CARLISLE","PENNSYLVANIA",1782,"BOROUGH OF CARLISLE","42","39","PENNSYLVANIA","PA","041","021","CUMBERLAND","11272","002",2,40.1999232,-77.2034143
"58","49201300400000","CITY OF LEWISBURG","WEST VIRGINIA",1782,"CITY OF LEWISBURG","54","49","WEST VIRGINIA","WV","025","013","GREENBRIER","46636","004",2,37.8096046,-80.4326343
"59","15201000200000","TOWN OF CLARKSVILLE","INDIANA",1783,"TOWN OF CLARKSVILLE","18","15","INDIANA","IN","019","010","CLARK","12934","002",2,38.3218914,-85.7673593
"60","34200400700000","TOWN OF WADESBORO","NORTH CAROLINA",1783,"TOWN OF WADESBORO","37","34","NORTH CAROLINA","NC","007","004","ANSON","70380","007",2,34.9646034,-80.07464
"61","34206700400000","TOWN OF SWANSBORO","NORTH CAROLINA",1783,"TOWN OF SWANSBORO","37","34","NORTH CAROLINA","NC","133","067","ONSLOW","66360","004",2,34.6951905,-77.1358326
"62","39200601600000","CITY OF READING","PENNSYLVANIA",1783,"CITY OF READING","42","39","PENNSYLVANIA","PA","011","006","BERKS","63624","016",2,40.3399779,-75.9266482
"63","41201000100000","CITY OF CHARLESTON","SOUTH CAROLINA",1783,"CITY OF CHARLESTON","45","41","SOUTH CAROLINA","SC","019","010","CHARLESTON","13330","001",2,32.8162917,-79.9679229
"64","07200200200000","CITY OF HARTFORD","CONNECTICUT",1784,"CITY OF HARTFORD","09","07","CONNECTICUT","CT","003","002","HARTFORD","37000","002",2,41.7660707,-72.6834012
"65","07200400200000","CITY OF MIDDLETOWN","CONNECTICUT",1784,"CITY OF MIDDLETOWN","09","07","CONNECTICUT","CT","007","004","MIDDLESEX","47290","002",2,41.5476359,-72.6548766
"66","07200500600000","CITY OF NEW HAVEN","CONNECTICUT",1784,"CITY OF NEW HAVEN","09","07","CONNECTICUT","CT","009","005","NEW HAVEN","52000","006",2,41.3104106,-72.9242536
"67","07200600400000","CITY OF NEW LONDON","CONNECTICUT",1784,"CITY OF NEW LONDON","09","07","CONNECTICUT","CT","011","006","NEW LONDON","52280","004",2,41.3328551,-72.0962745
"68","07200600500000","CITY OF NORWICH","CONNECTICUT",1784,"CITY OF NORWICH","09","07","CONNECTICUT","CT","011","006","NEW LONDON","56200","005",2,41.5494781,-72.0882714
"69","34205200300000","TOWN OF TRENTON","NORTH CAROLINA",1784,"TOWN OF TRENTON","37","34","NORTH CAROLINA","NC","103","052","JONES","68320","003",2,35.0639969,-77.3552757
"70","34207700400000","CITY OF ROCKINGHAM","NORTH CAROLINA",1784,"CITY OF ROCKINGHAM","37","34","NORTH CAROLINA","NC","153","077","RICHMOND","57260","004",2,34.9385635,-79.7608168
"71","40200300100000","CITY OF NEWPORT","RHODE ISLAND",1784,"CITY OF NEWPORT","44","40","RHODE ISLAND","RI","005","003","NEWPORT","49960","001",2,41.4819404,-71.3229428
"72","21201300300000","CITY OF HAVRE DE GRACE","MARYLAND",1785,"CITY OF HAVRE DE GRACE","24","21","MARYLAND","MD","025","013","HARFORD","37600","003",2,39.5471106,-76.1129762
"73","33201100200000","CITY OF HUDSON","NEW YORK",1785,"CITY OF HUDSON","36","33","NEW YORK","NY","021","011","COLUMBIA","35969","002",2,42.2515206,-73.7858917
"74","34205500100000","CITY OF LINCOLNTON","NORTH CAROLINA",1785,"CITY OF LINCOLNTON","37","34","NORTH CAROLINA","NC","109","055","LINCOLN","38320","001",2,35.4748774,-81.2385308
"75","34205900400000","TOWN OF JAMESVILLE","NORTH CAROLINA",1785,"TOWN OF JAMESVILLE","37","34","NORTH CAROLINA","NC","117","059","MARTIN","34320","004",2,35.8121981,-76.9001821
"76","49201700200000","CITY OF CLARKSBURG","WEST VIRGINIA",1785,"CITY OF CLARKSBURG","54","49","WEST VIRGINIA","WV","033","017","HARRISON","15628","002",2,39.2788805,-80.3342764
"77","49203100300000","CITY OF MORGANTOWN","WEST VIRGINIA",1785,"CITY OF MORGANTOWN","54","49","WEST VIRGINIA","WV","061","031","MONONGALIA","55756","003",2,39.6381682,-79.9463892
"78","21200800200000","TOWN OF CHARLESTOWN","MARYLAND",1786,"TOWN OF CHARLESTOWN","24","21","MARYLAND","MD","015","008","CECIL","15400","002",2,39.5789474,-75.9811428
"79","26209503400000","CITY OF FLORISSANT","MISSOURI",1786,"CITY OF FLORISSANT","29","26","MISSOURI","MO","189","095","ST LOUIS","24778","034",2,38.7995913,-90.3268448
"80","49201900200000","CITY OF CHARLES TOWN","WEST VIRGINIA",1786,"CITY OF CHARLES TOWN","54","49","WEST VIRGINIA","WV","037","019","JEFFERSON","14610","002",2,39.2651918,-77.8584265
"81","34201900200000","TOWN OF PITTSBORO","NORTH CAROLINA",1787,"TOWN OF PITTSBORO","37","34","NORTH CAROLINA","NC","037","019","CHATHAM","52660","002",2,35.7256404,-79.1712548
"82","34204600300000","TOWN OF MURFREESBORO","NORTH CAROLINA",1787,"TOWN OF MURFREESBORO","37","34","NORTH CAROLINA","NC","091","046","HERTFORD","45640","003",2,36.4419681,-77.0967881
"83","39206703500000","CITY OF YORK","PENNSYLVANIA",1787,"CITY OF YORK","42","39","PENNSYLVANIA","PA","133","067","YORK","87048","035",2,39.9651,-76.7315353
"84","46200100300000","CITY OF VERGENNES","VERMONT",1788,"CITY OF VERGENNES","50","46","VERMONT","VT","001","001","ADDISON","74650","003",2,44.1663888,-73.2556473
"85","11202500300000","CITY OF SAVANNAH","GEORGIA",1789,"CITY OF SAVANNAH","13","11","GEORGIA","GA","051","025","CHATHAM","69000","003",2,31.975045,-81.1680985
"86","31202000100000","CITY OF ELIZABETH","NEW JERSEY",1789,"CITY OF ELIZABETH","34","31","NEW JERSEY","NJ","039","020","UNION","21000","001",2,40.665565,-74.1911036
"87","39204800600000","CITY OF EASTON","PENNSYLVANIA",1789,"CITY OF EASTON","42","39","PENNSYLVANIA","PA","095","048","NORTHAMPTON","21648","006",2,40.6857932,-75.2209306
"88","21202100100000","TOWN OF EASTON","MARYLAND",1790,"TOWN OF EASTON","24","21","MARYLAND","MD","041","021","TALBOT","24475","001",2,38.7760535,-76.070164
"89","36202700400000","CITY OF GALLIPOLIS","OHIO",1790,"CITY OF GALLIPOLIS","39","36","OHIO","OH","053","027","GALLIA","29204","004",2,38.809803,-82.2023691
"90","36203102400000","VILLAGE OF NORTH BEND","OHIO",1790,"VILLAGE OF NORTH BEND","39","36","OHIO","OH","061","031","HAMILTON","56182","024",2,39.150677,-84.7403029
"91","49204200100000","TOWN OF BEVERLY","WEST VIRGINIA",1790,"TOWN OF BEVERLY","54","49","WEST VIRGINIA","WV","083","042","RANDOLPH","06988","001",2,38.8440822,-79.8718039
"92","39202200600000","CITY OF HARRISBURG","PENNSYLVANIA",1791,"CITY OF HARRISBURG","42","39","PENNSYLVANIA","PA","043","022","DAUPHIN","32800","006",2,40.2752111,-76.8842483
"93","41202800300000","CITY OF CAMDEN","SOUTH CAROLINA",1791,"CITY OF CAMDEN","45","41","SOUTH CAROLINA","SC","055","028","KERSHAW","10855","003",2,34.257028,-80.6089528
"94","43204700100000","CITY OF KNOXVILLE","TENNESSEE",1791,"CITY OF KNOXVILLE","47","43","TENNESSEE","TN","093","047","KNOX","40000","001",2,35.9693168,-83.9494127
"95","49200500400000","CITY OF WELLSBURG","WEST VIRGINIA",1791,"CITY OF WELLSBURG","54","49","WEST VIRGINIA","WV","009","005","BROOKE","85324","004",2,40.281038,-80.6102451
"96","11202000200000","CITY OF ST MARYS","GEORGIA",1792,"CITY OF ST MARYS","13","11","GEORGIA","GA","039","020","CAMDEN","67984","002",2,30.7567087,-81.5722074
"97","31201100500000","CITY OF TRENTON","NEW JERSEY",1792,"CITY OF TRENTON","34","31","NEW JERSEY","NJ","021","011","MERCER","74000","005",2,40.2236972,-74.7640065
"98","34201000300000","CITY OF SOUTHPORT","NORTH CAROLINA",1792,"CITY OF SOUTHPORT","37","34","NORTH CAROLINA","NC","019","010","BRUNSWICK","63400","003",2,33.9253849,-78.0193145
"99","34209200800000","CITY OF RALEIGH","NORTH CAROLINA",1792,"CITY OF RALEIGH","37","34","NORTH CAROLINA","NC","183","092","WAKE","55000","008",2,35.8323324,-78.6429411
"100","21201000200000","CITY OF CAMBRIDGE","MARYLAND",1793,"CITY OF CAMBRIDGE","24","21","MARYLAND","MD","019","010","DORCHESTER","12400","002",2,38.5556598,-76.0755682
"101","26201600100000","CITY OF CAPE GIRARDEAU","MISSOURI",1793,"CITY OF CAPE GIRARDEAU","29","26","MISSOURI","MO","031","016","CAPE GIRARDEAU","11242","001",2,37.3108756,-89.5596533
"102","21201800200000","TOWN OF CENTREVILLE","MARYLAND",1794,"TOWN OF CENTREVILLE","24","21","MARYLAND","MD","035","018","QUEEN ANNES","14950","002",2,39.0419188,-76.0630718
"103","33204601000000","VILLAGE OF WATERFORD","NEW YORK",1794,"VILLAGE OF WATERFORD","36","33","NEW YORK","NY","091","046","SARATOGA","78520","010",2,42.7915911,-73.6790292
"104","34200800400000","TOWN OF COLERAIN","NORTH CAROLINA",1794,"TOWN OF COLERAIN","37","34","NORTH CAROLINA","NC","015","008","BERTIE","13560","004",2,36.2015735,-76.7664001
"105","34207000100000","CITY OF ELIZABETH CITY","NORTH CAROLINA",1794,"CITY OF ELIZABETH CITY","37","34","NORTH CAROLINA","NC","139","070","PASQUOTANK","20580","001",2,36.2942732,-76.2360904
"106","39200205600000","CITY OF PITTSBURGH","PENNSYLVANIA",1794,"CITY OF PITTSBURGH","42","39","PENNSYLVANIA","PA","003","002","ALLEGHENY","61000","056",2,40.4396175,-79.9762567
"107","49201700600000","CITY OF SALEM","WEST VIRGINIA",1794,"CITY OF SALEM","54","49","WEST VIRGINIA","WV","033","017","HARRISON","71380","006",2,39.2849402,-80.5644761
"108","49202000200000","CITY OF CHARLESTON","WEST VIRGINIA",1794,"CITY OF CHARLESTON","54","49","WEST VIRGINIA","WV","039","020","KANAWHA","14600","002",2,38.3484344,-81.6321889
"109","49202700600000","CITY OF POINT PLEASANT","WEST VIRGINIA",1794,"CITY OF POINT PLEASANT","54","49","WEST VIRGINIA","WV","053","027","MASON","64708","006",2,38.8529841,-82.1302602
"110","49203600100000","TOWN OF FRANKLIN","WEST VIRGINIA",1794,"TOWN OF FRANKLIN","54","49","WEST VIRGINIA","WV","071","036","PENDLETON","29044","001",2,38.6452003,-79.3331195
"111","39200500100000","BOROUGH OF BEDFORD","PENNSYLVANIA",1795,"BOROUGH OF BEDFORD","42","39","PENNSYLVANIA","PA","009","005","BEDFORD","04944","001",2,40.0148785,-78.5033358
"112","39204400300000","BOROUGH OF LEWISTOWN","PENNSYLVANIA",1795,"BOROUGH OF LEWISTOWN","42","39","PENNSYLVANIA","PA","087","044","MIFFLIN","43000","003",2,40.5963156,-77.5730018
"113","39206000400000","BOROUGH OF NEW BERLIN","PENNSYLVANIA",1795,"BOROUGH OF NEW BERLIN","42","39","PENNSYLVANIA","PA","119","060","UNION","53200","004",2,40.8805044,-76.9842749
"114","43200500300000","CITY OF MARYVILLE","TENNESSEE",1795,"CITY OF MARYVILLE","47","43","TENNESSEE","TN","009","005","BLOUNT","46380","003",2,35.7468132,-83.9787968
"115","43203000200000","TOWN OF GREENEVILLE","TENNESSEE",1795,"TOWN OF GREENEVILLE","47","43","TENNESSEE","TN","059","030","GREENE","30980","002",2,36.1680141,-82.8196613
"116","43207800200000","CITY OF SEVIERVILLE","TENNESSEE",1795,"CITY OF SEVIERVILLE","47","43","TENNESSEE","TN","155","078","SEVIER","67120","002",2,35.8869452,-83.6033065
"117","47205400300000","TOWN OF LEESBURG","VIRGINIA",1795,"TOWN OF LEESBURG","51","47","VIRGINIA","VA","107","054","LOUDOUN","44984","003",2,39.1056983,-77.5544585
"118","21200400100000","CITY OF BALTIMORE","MARYLAND",1796,"CITY OF BALTIMORE","24","21","MARYLAND","MD","510","004","BALTIMORE CITY","04000","001",2,39.3009792,-76.6106471
"119","34201300100000","CITY OF CONCORD","NORTH CAROLINA",1796,"CITY OF CONCORD","37","34","NORTH CAROLINA","NC","025","013","CABARRUS","14100","001",2,35.3932714,-80.6367847
"120","34201700100000","TOWN OF MILTON","NORTH CAROLINA",1796,"TOWN OF MILTON","37","34","NORTH CAROLINA","NC","033","017","CASWELL","43300","001",2,36.5372421,-79.2080975
"121","34206300300000","TOWN OF CARTHAGE","NORTH CAROLINA",1796,"TOWN OF CARTHAGE","37","34","NORTH CAROLINA","NC","125","063","MOORE","10680","003",2,35.3225285,-79.4114102
"122","34207600100000","CITY OF ASHEBORO","NORTH CAROLINA",1796,"CITY OF ASHEBORO","37","34","NORTH CAROLINA","NC","151","076","RANDOLPH","02080","001",2,35.715787,-79.8127061
"123","39202601700000","CITY OF UNIONTOWN","PENNSYLVANIA",1796,"CITY OF UNIONTOWN","42","39","PENNSYLVANIA","PA","051","026","FAYETTE","78528","017",2,39.8993026,-79.7245286
"124","39203100700000","BOROUGH OF HUNTINGDON","PENNSYLVANIA",1796,"BOROUGH OF HUNTINGDON","42","39","PENNSYLVANIA","PA","061","031","HUNTINGDON","36368","007",2,40.4999896,-78.0097358
"125","43207400300000","CITY OF SPRINGFIELD","TENNESSEE",1796,"CITY OF SPRINGFIELD","47","43","TENNESSEE","TN","147","074","ROBERTSON","70500","003",2,36.4949092,-86.8711807
"126","18202400200000","CITY OF HOPKINSVILLE","KENTUCKY",1797,"CITY OF HOPKINSVILLE","21","18","KENTUCKY","KY","047","024","CHRISTIAN","37918","002",2,36.8381865,-87.4776114
"127","18205601100000","CITY OF JEFFERSONTOWN","KENTUCKY",1797,"CITY OF JEFFERSONTOWN","21","18","KENTUCKY","KY","111","056","JEFFERSON","40222","011",2,38.2048567,-85.5700753
"128","34201100100000","CITY OF ASHEVILLE","NORTH CAROLINA",1797,"CITY OF ASHEVILLE","37","34","NORTH CAROLINA","NC","021","011","BUNCOMBE","02140","001",2,35.5706235,-82.5537152
"129","36203600100000","VILLAGE OF GREENFIELD","OHIO",1797,"VILLAGE OF GREENFIELD","39","36","OHIO","OH","071","036","HIGHLAND","32088","001",2,39.3535529,-83.3884081
"130","36206001000000","CITY OF ZANESVILLE","OHIO",1797,"CITY OF ZANESVILLE","39","36","OHIO","OH","119","060","MUSKINGUM","88084","010",2,39.9565511,-82.01323
"131","39204901100000","CITY OF SUNBURY","PENNSYLVANIA",1797,"CITY OF SUNBURY","42","39","PENNSYLVANIA","PA","097","049","NORTHUMBERLAND","75304","011",2,40.8616448,-76.7870515
"132","43202900100000","CITY OF RUTLEDGE","TENNESSEE",1797,"CITY OF RUTLEDGE","47","43","TENNESSEE","TN","057","029","GRAINGER","65820","001",2,36.2757047,-83.531048
"133","11212100100000","CONSOLIDATED GOVERNMENT OF AUGUSTA-RICHMOND COUNTY","GEORGIA",1798,"CONSOLIDATED GOVERNMENT OF AUGUSTA-RICHMOND COUNTY","13","11","GEORGIA","GA","245","121","RICHMOND","04204","001",2,33.3596157,-82.073595
"134","33203301700000","CITY OF UTICA","NEW YORK",1798,"CITY OF UTICA","36","33","NEW YORK","NY","065","033","ONEIDA","76540","017",2,43.0961479,-75.2261395
"135","33204200600000","CITY OF TROY","NEW YORK",1798,"CITY OF TROY","36","33","NEW YORK","NY","083","042","RENSSELAER","75484","006",2,42.7354594,-73.6751339
"136","33204700200000","CITY OF SCHENECTADY","NEW YORK",1798,"CITY OF SCHENECTADY","36","33","NEW YORK","NY","093","047","SCHENECTADY","65508","002",2,42.8025259,-73.9275595
"137","36204101400000","VILLAGE OF SMITHFIELD","OHIO",1798,"VILLAGE OF SMITHFIELD","39","36","OHIO","OH","081","041","JEFFERSON","72760","014",2,40.2715569,-80.7772688
"138","39201501500000","BOROUGH OF WEST CHESTER","PENNSYLVANIA",1799,"BOROUGH OF WEST CHESTER","42","39","PENNSYLVANIA","PA","029","015","CHESTER","82704","015",2,39.9601247,-75.6058004
"139","39206501000000","CITY OF GREENSBURG","PENNSYLVANIA",1799,"CITY OF GREENSBURG","42","39","PENNSYLVANIA","PA","129","065","WESTMORELAND","31200","010",2,40.3112533,-79.544398
"140","43201000100000","CITY OF ELIZABETHTON","TENNESSEE",1799,"CITY OF ELIZABETHTON","47","43","TENNESSEE","TN","019","010","CARTER","23500","001",2,36.3366743,-82.2370023
"141","43201500100000","CITY OF NEWPORT","TENNESSEE",1799,"CITY OF NEWPORT","47","43","TENNESSEE","TN","029","015","COCKE","53000","001",2,35.9616165,-83.1975951
"142","43202700800000","TOWN OF RUTHERFORD","TENNESSEE",1799,"TOWN OF RUTHERFORD","47","43","TENNESSEE","TN","053","027","GIBSON","65760","008",2,36.124957,-88.9919746
"143","43204500100000","TOWN OF DANDRIDGE","TENNESSEE",1799,"TOWN OF DANDRIDGE","47","43","TENNESSEE","TN","089","045","JEFFERSON","19380","001",2,36.0283388,-83.4307451
"144","43207300200000","CITY OF KINGSTON","TENNESSEE",1799,"CITY OF KINGSTON","47","43","TENNESSEE","TN","145","073","ROANE","39620","002",2,35.8712449,-84.4959666
"145","43209400100000","CITY OF FRANKLIN","TENNESSEE",1799,"CITY OF FRANKLIN","47","43","TENNESSEE","TN","187","094","WILLIAMSON","27740","001",2,35.9199168,-86.8515657
"146","47202400100000","TOWN OF CULPEPER","VIRGINIA",1799,"TOWN OF CULPEPER","51","47","VIRGINIA","VA","047","024","CULPEPER","20752","001",2,38.4703687,-78.0001611
"147","49203200200000","TOWN OF UNION","WEST VIRGINIA",1799,"TOWN OF UNION","54","49","WEST VIRGINIA","WV","063","032","MONROE","81940","002",2,37.5904423,-80.5420054
"148","33203600400000","VILLAGE OF GOSHEN","NEW YORK",1800,"VILLAGE OF GOSHEN","36","33","NEW YORK","NY","071","036","ORANGE","29542","004",2,41.401648,-74.3268538
"149","33203601200000","CITY OF NEWBURGH","NEW YORK",1800,"CITY OF NEWBURGH","36","33","NEW YORK","NY","071","036","ORANGE","50034","012",2,41.5036973,-74.0204722
"150","36205000900000","CITY OF STRUTHERS","OHIO",1800,"CITY OF STRUTHERS","39","36","OHIO","OH","099","050","MAHONING","75126","009",2,41.0509754,-80.5920208
"151","36205600500000","VILLAGE OF JERUSALEM","OHIO",1800,"VILLAGE OF JERUSALEM","39","36","OHIO","OH","111","056","MONROE","39130","005",2,39.8518847,-81.0959227
"152","36206800400000","VILLAGE OF ELDORADO","OHIO",1800,"VILLAGE OF ELDORADO","39","36","OHIO","OH","135","068","PREBLE","24766","004",2,39.9042564,-84.6753308
"153","07200600600000","BOROUGH OF STONINGTON","CONNECTICUT",1801,"BOROUGH OF STONINGTON","09","07","CONNECTICUT","CT","011","006","NEW LONDON","73700","006",2,41.3333161,-71.9022286
"154","09200100100000","CITY OF WASHINGTON DC","DISTRICT OF COLUMBIA",1801,"CITY OF WASHINGTON DC","11","09","DISTRICT OF COLUMBIA","DC","001","001","WASHINGTON DC","50000","001",2,38.9047747,-77.0163024
"155","18211600100000","CITY OF MONTICELLO","KENTUCKY",1801,"CITY OF MONTICELLO","21","18","KENTUCKY","KY","231","116","WAYNE","53130","001",2,36.8411805,-84.8503131
"156","33200100900000","CITY OF WATERVLIET","NEW YORK",1801,"CITY OF WATERVLIET","36","33","NEW YORK","NY","001","001","ALBANY","78674","009",2,42.7243194,-73.7068257
"157","33201400600000","CITY OF POUGHKEEPSIE","NEW YORK",1801,"CITY OF POUGHKEEPSIE","36","33","NEW YORK","NY","027","014","DUTCHESS","59641","006",2,41.6949245,-73.9210478
"158","43200100100000","CITY OF CLINTON","TENNESSEE",1801,"CITY OF CLINTON","47","43","TENNESSEE","TN","001","001","ANDERSON","15580","001",2,36.0980907,-84.1283035
"159","43201300300000","TOWN OF TAZEWELL","TENNESSEE",1801,"TOWN OF TAZEWELL","47","43","TENNESSEE","TN","025","013","CLAIBORNE","73120","003",2,36.4625035,-83.5670335
"160","43208300100000","CITY OF GALLATIN","TENNESSEE",1801,"CITY OF GALLATIN","47","43","TENNESSEE","TN","165","083","SUMNER","28540","001",2,36.3781851,-86.4697862
"161","43209500100000","CITY OF LEBANON","TENNESSEE",1801,"CITY OF LEBANON","47","43","TENNESSEE","TN","189","095","WILSON","41520","001",2,36.2039928,-86.3481405
"162","47213000100000","CITY OF STAUNTON","VIRGINIA",1801,"CITY OF STAUNTON","51","47","VIRGINIA","VA","790","130","STAUNTON CITY","75216","001",2,38.1593008,-79.0611168
"163","18200100100000","CITY OF COLUMBIA","KENTUCKY",1802,"CITY OF COLUMBIA","21","18","KENTUCKY","KY","001","001","ADAIR","16750","001",2,37.103545,-85.3073008
"164","18204900200000","CITY OF CYNTHIANA","KENTUCKY",1802,"CITY OF CYNTHIANA","21","18","KENTUCKY","KY","097","049","HARRISON","19432","002",2,38.3859841,-84.2993276
"165","21200600100000","TOWN OF DENTON","MARYLAND",1802,"TOWN OF DENTON","24","21","MARYLAND","MD","011","006","CAROLINE","22725","001",2,38.8768798,-75.826559
"166","23208200400000","CITY OF DETROIT","MICHIGAN",1802,"CITY OF DETROIT","26","23","MICHIGAN","MI","163","082","WAYNE","22000","004",2,42.3833911,-83.1024122
"167","36200701000000","VILLAGE OF MORRISTOWN","OHIO",1802,"VILLAGE OF MORRISTOWN","39","36","OHIO","OH","013","007","BELMONT","52346","010",2,40.0638336,-81.0695518
"168","39200400400000","BOROUGH OF BEAVER","PENNSYLVANIA",1802,"BOROUGH OF BEAVER","42","39","PENNSYLVANIA","PA","007","004","BEAVER","04688","004",2,40.693566,-80.3074283
"169","39206300600000","BOROUGH OF CANONSBURG","PENNSYLVANIA",1802,"BOROUGH OF CANONSBURG","42","39","PENNSYLVANIA","PA","125","063","WASHINGTON","11152","006",2,40.2642467,-80.1867758
"170","11205200200000","CITY OF ELBERTON","GEORGIA",1803,"CITY OF ELBERTON","13","11","GEORGIA","GA","105","052","ELBERT","26616","002",2,34.1063493,-82.8705864
"171","11206600100000","CITY OF GREENSBORO","GEORGIA",1803,"CITY OF GREENSBORO","13","11","GEORGIA","GA","133","066","GREENE","34876","001",2,33.568706,-83.1871138
"172","25200100100000","CITY OF NATCHEZ","MISSISSIPPI",1803,"CITY OF NATCHEZ","28","25","MISSISSIPPI","MS","001","001","ADAMS","50440","001",2,31.5436452,-91.386646
"173","25201100100000","TOWN OF PORT GIBSON","MISSISSIPPI",1803,"TOWN OF PORT GIBSON","28","25","MISSISSIPPI","MS","021","011","CLAIBORNE","59560","001",2,31.9558164,-90.9834386
"174","26207200800000","CITY OF NEW MADRID","MISSOURI",1803,"CITY OF NEW MADRID","29","26","MISSOURI","MO","143","072","NEW MADRID","52076","008",2,36.587835,-89.5504904
"175","33202000100000","VILLAGE OF ATHENS","NEW YORK",1803,"VILLAGE OF ATHENS","36","33","NEW YORK","NY","039","020","GREENE","02902","001",2,42.2695132,-73.8103792
"176","34204100500000","TOWN OF JAMESTOWN","NORTH CAROLINA",1803,"TOWN OF JAMESTOWN","37","34","NORTH CAROLINA","NC","081","041","GUILFORD","34300","005",2,35.9984385,-79.9346554
"177","36207300300000","CITY OF PORTSMOUTH","OHIO",1803,"CITY OF PORTSMOUTH","39","36","OHIO","OH","145","073","SCIOTO","64304","003",2,38.7538611,-82.944432
"178","39202800100000","BOROUGH OF CHAMBERSBURG","PENNSYLVANIA",1803,"BOROUGH OF CHAMBERSBURG","42","39","PENNSYLVANIA","PA","055","028","FRANKLIN","12536","001",2,39.9314343,-77.6556397
"179","41200700100000","CITY OF BEAUFORT","SOUTH CAROLINA",1803,"CITY OF BEAUFORT","45","41","SOUTH CAROLINA","SC","013","007","BEAUFORT","04690","001",2,32.4597508,-80.7236316
"180","47209600100000","TOWN OF ABINGDON","VIRGINIA",1803,"TOWN OF ABINGDON","51","47","VIRGINIA","VA","191","096","WASHINGTON","00148","001",2,36.7089447,-81.9712528
"181","49203200100000","TOWN OF PETERSTOWN","WEST VIRGINIA",1803,"TOWN OF PETERSTOWN","54","49","WEST VIRGINIA","WV","063","032","MONROE","63052","001",2,37.3989762,-80.7950175
"182","11202900100000","UNIFIED GOVERNMENT OF ATHENS-CLARKE COUNTY","GEORGIA",1804,"UNIFIED GOVERNMENT OF ATHENS-CLARKE COUNTY","13","11","GEORGIA","GA","059","029","CLARKE","03436","001",2,33.9511697,-83.367307
"183","21202100300000","TOWN OF ST MICHAELS","MARYLAND",1804,"TOWN OF ST MICHAELS","24","21","MARYLAND","MD","041","021","TALBOT","69825","003",2,38.7883522,-76.2243854
"184","36203400200000","VILLAGE OF CADIZ","OHIO",1804,"VILLAGE OF CADIZ","39","36","OHIO","OH","067","034","HARRISON","10800","002",2,40.2643799,-80.9980312
"185","36206500600000","VILLAGE OF SOUTH BLOOMFIELD","OHIO",1804,"VILLAGE OF SOUTH BLOOMFIELD","39","36","OHIO","OH","129","065","PICKAWAY","73068","006",2,39.7170045,-82.9931297
"186","39200900900000","BOROUGH OF MORRISVILLE","PENNSYLVANIA",1804,"BOROUGH OF MORRISVILLE","42","39","PENNSYLVANIA","PA","017","009","BUCKS","51144","009",2,40.2073859,-74.7799634
"187","39205601800000","BOROUGH OF SOMERSET","PENNSYLVANIA",1804,"BOROUGH OF SOMERSET","42","39","PENNSYLVANIA","PA","111","056","SOMERSET","71776","018",2,40.0050298,-79.0778563
"188","43202200100000","CITY OF CHARLOTTE","TENNESSEE",1804,"CITY OF CHARLOTTE","47","43","TENNESSEE","TN","043","022","DICKSON","13080","001",2,36.1861364,-87.3388839
"189","43208000100000","TOWN OF CARTHAGE","TENNESSEE",1804,"TOWN OF CARTHAGE","47","43","TENNESSEE","TN","159","080","SMITH","11280","001",2,36.2565574,-85.9428858
"190","11207000100000","CITY OF SPARTA","GEORGIA",1805,"CITY OF SPARTA","13","11","GEORGIA","GA","141","070","HANCOCK","72584","001",2,33.2766495,-82.9705336
"191","11207800500000","CITY OF JEFFERSON","GEORGIA",1805,"CITY OF JEFFERSON","13","11","GEORGIA","GA","157","078","JACKSON","41988","005",2,34.1373001,-83.6020801
"192","19203600100000","CITY OF NEW ORLEANS","LOUISIANA",1805,"CITY OF NEW ORLEANS","22","19","LOUISIANA","LA","071","036","ORLEANS","55000","001",2,30.0686438,-89.9281282
"193","21201500200000","TOWN OF CHESTERTOWN","MARYLAND",1805,"TOWN OF CHESTERTOWN","24","21","MARYLAND","MD","029","015","KENT","16225","002",2,39.2182802,-76.0714662
"194","26209700100000","CITY OF STE GENEVIEVE","MISSOURI",1805,"CITY OF STE GENEVIEVE","29","26","MISSOURI","MO","186","097","STE GENEVIEVE","64180","001",2,37.9754823,-90.0477491
"195","33205600200000","CITY OF KINGSTON","NEW YORK",1805,"CITY OF KINGSTON","36","33","NEW YORK","NY","111","056","ULSTER","39727","002",2,41.9295132,-73.9967932
"196","36203001100000","VILLAGE OF OLD WASHINGTON","OHIO",1805,"VILLAGE OF OLD WASHINGTON","39","36","OHIO","OH","059","030","GUERNSEY","58226","011",2,40.0376177,-81.4442181
"197","36205700400000","CITY OF DAYTON","OHIO",1805,"CITY OF DAYTON","39","36","OHIO","OH","113","057","MONTGOMERY","21000","004",2,39.7805647,-84.20026
"198","36206400400000","VILLAGE OF HEMLOCK","OHIO",1805,"VILLAGE OF HEMLOCK","39","36","OHIO","OH","127","064","PERRY","34888","004",2,39.5904611,-82.1544739
"199","39202500700000","CITY OF ERIE","PENNSYLVANIA",1805,"CITY OF ERIE","42","39","PENNSYLVANIA","PA","049","025","ERIE","24000","007",2,42.1167569,-80.0732793
"200","39202700100000","BOROUGH OF TIONESTA","PENNSYLVANIA",1805,"BOROUGH OF TIONESTA","42","39","PENNSYLVANIA","PA","053","027","FOREST","76848","001",2,41.4936609,-79.4479971
"201","39202800200000","BOROUGH OF GREENCASTLE","PENNSYLVANIA",1805,"BOROUGH OF GREENCASTLE","42","39","PENNSYLVANIA","PA","055","028","FRANKLIN","30896","002",2,39.79067,-77.7266739
"202","41202200200000","CITY OF GEORGETOWN","SOUTH CAROLINA",1805,"CITY OF GEORGETOWN","45","41","SOUTH CAROLINA","SC","043","022","GEORGETOWN","28870","002",2,33.3651429,-79.2809
"203","41204000100000","CITY OF COLUMBIA","SOUTH CAROLINA",1805,"CITY OF COLUMBIA","45","41","SOUTH CAROLINA","SC","079","040","RICHLAND","16000","001",2,34.037711,-80.9035481
"204","43208100200000","TOWN OF DOVER","TENNESSEE",1805,"TOWN OF DOVER","47","43","TENNESSEE","TN","161","081","STEWART","21400","002",2,36.4818367,-87.8438212
"205","47211900100000","CITY OF LYNCHBURG","VIRGINIA",1805,"CITY OF LYNCHBURG","51","47","VIRGINIA","VA","680","119","LYNCHBURG CITY","47672","001",2,37.4002849,-79.1908563
"206","08200101600000","TOWN OF SMYRNA","DELAWARE",1806,"TOWN OF SMYRNA","10","08","DELAWARE","DE","001","001","KENT","67310","016",2,39.2936329,-75.6083403
"207","11210500100000","CITY OF CHATSWORTH","GEORGIA",1806,"CITY OF CHATSWORTH","13","11","GEORGIA","GA","213","105","MURRAY","15508","001",2,34.780704,-84.7833926
"208","11210800600000","CITY OF WATKINSVILLE","GEORGIA",1806,"CITY OF WATKINSVILLE","13","11","GEORGIA","GA","219","108","OCONEE","80788","006",2,33.8609603,-83.4071859
"209","11210900200000","CITY OF LEXINGTON","GEORGIA",1806,"CITY OF LEXINGTON","13","11","GEORGIA","GA","221","109","OGLETHORPE","46188","002",2,33.8700689,-83.1101536
"210","14207900600000","VILLAGE OF KASKASKIA","ILLINOIS",1806,"VILLAGE OF KASKASKIA","17","14","ILLINOIS","IL","157","079","RANDOLPH","39129","006",2,37.9212798,-89.9163253
"211","33202000200000","VILLAGE OF CATSKILL","NEW YORK",1806,"VILLAGE OF CATSKILL","36","33","NEW YORK","NY","039","020","GREENE","13002","002",2,42.2144914,-73.8656991
"212","33203500400000","CITY OF GENEVA","NEW YORK",1806,"CITY OF GENEVA","36","33","NEW YORK","NY","069","035","ONTARIO","28640","004",2,42.8644267,-76.9826362
"213","36201500900000","CITY OF SALEM","OHIO",1806,"CITY OF SALEM","39","36","OHIO","OH","029","015","COLUMBIANA","69834","009",2,40.9049071,-80.8491572
"214","39200100700000","BOROUGH OF GETTYSBURG","PENNSYLVANIA",1806,"BOROUGH OF GETTYSBURG","42","39","PENNSYLVANIA","PA","001","001","ADAMS","28960","007",2,39.8303677,-77.233853
"215","39201400100000","BOROUGH OF BELLEFONTE","PENNSYLVANIA",1806,"BOROUGH OF BELLEFONTE","42","39","PENNSYLVANIA","PA","027","014","CENTRE","05256","001",2,40.9141222,-77.768341
"216","39202600300000","CITY OF CONNELLSVILLE","PENNSYLVANIA",1806,"CITY OF CONNELLSVILLE","42","39","PENNSYLVANIA","PA","051","026","FAYETTE","15776","003",2,40.0160884,-79.5892739
"217","39204003500000","CITY OF WILKES BARRE","PENNSYLVANIA",1806,"CITY OF WILKES BARRE","42","39","PENNSYLVANIA","PA","079","040","LUZERNE","85152","035",2,41.2469199,-75.8760561
"218","39204101000000","CITY OF WILLIAMSPORT","PENNSYLVANIA",1806,"CITY OF WILLIAMSPORT","42","39","PENNSYLVANIA","PA","081","041","LYCOMING","85312","010",2,41.2398597,-77.0370023
"219","43201900300000","METROPOLITAN GOVERNMENT OF NASHVILLE-DAVIDSON COUNTY","TENNESSEE",1806,"METROPOLITAN GOVERNMENT OF NASHVILLE-DAVIDSON COUNTY","47","43","TENNESSEE","TN","037","019","DAVIDSON","52004","003",2,36.1693632,-86.784715
"220","47208600300000","TOWN OF NEW MARKET","VIRGINIA",1806,"TOWN OF NEW MARKET","51","47","VIRGINIA","VA","171","086","SHENANDOAH","55848","003",2,38.6458843,-78.6709337
"221","49203500400000","CITY OF WHEELING","WEST VIRGINIA",1806,"CITY OF WHEELING","54","49","WEST VIRGINIA","WV","069","035","OHIO","86452","004",2,40.0750983,-80.695349
"222","08200301300000","CITY OF MILFORD","DELAWARE",1807,"CITY OF MILFORD","10","08","DELAWARE","DE","005","003","SUSSEX","47420","013",2,38.9091856,-75.4227937
"223","11205900200000","CITY OF CARNESVILLE","GEORGIA",1807,"CITY OF CARNESVILLE","13","11","GEORGIA","GA","119","059","FRANKLIN","13352","002",2,34.3728922,-83.2328725
"224","33202200400000","VILLAGE OF HERKIMER","NEW YORK",1807,"VILLAGE OF HERKIMER","36","33","NEW YORK","NY","043","022","HERKIMER","34121","004",2,43.0281448,-74.9927918
"225","33204600100000","VILLAGE OF BALLSTON SPA","NEW YORK",1807,"VILLAGE OF BALLSTON SPA","36","33","NEW YORK","NY","091","046","SARATOGA","04253","001",2,43.00674,-73.8524063
"226","34209400300000","TOWN OF PLYMOUTH","NORTH CAROLINA",1807,"TOWN OF PLYMOUTH","37","34","NORTH CAROLINA","NC","187","094","WASHINGTON","53040","003",2,35.8586779,-76.7486536
"227","36200701200000","CITY OF ST CLAIRSVILLE","OHIO",1807,"CITY OF ST CLAIRSVILLE","39","36","OHIO","OH","013","007","BELMONT","69526","012",2,40.0792092,-80.8996196
"228","36205501200000","VILLAGE OF WEST MILTON","OHIO",1807,"VILLAGE OF WEST MILTON","39","36","OHIO","OH","109","055","MIAMI","83902","012",2,39.9584169,-84.3261248
"229","36206401000000","VILLAGE OF SOMERSET","OHIO",1807,"VILLAGE OF SOMERSET","39","36","OHIO","OH","127","064","PERRY","72977","010",2,39.806378,-82.2995898
"230","43206300100000","CITY OF CLARKSVILLE","TENNESSEE",1807,"CITY OF CLARKSVILLE","47","43","TENNESSEE","TN","125","063","MONTGOMERY","15160","001",2,36.569252,-87.3413631
"231","43207900300000","TOWN OF COLLIERVILLE","TENNESSEE",1807,"TOWN OF COLLIERVILLE","47","43","TENNESSEE","TN","157","079","SHELBY","16420","003",2,35.0469321,-89.6987382
"232","11207900100000","CITY OF MONTICELLO","GEORGIA",1808,"CITY OF MONTICELLO","13","11","GEORGIA","GA","159","079","JASPER","52416","001",2,33.2955002,-83.6860554
"233","18202300100000","CITY OF LIBERTY","KENTUCKY",1808,"CITY OF LIBERTY","21","18","KENTUCKY","KY","045","023","CASEY","46072","001",2,37.3204499,-84.9286444
"234","18209200400000","CITY OF HARTFORD","KENTUCKY",1808,"CITY OF HARTFORD","21","18","KENTUCKY","KY","183","092","OHIO","35020","004",2,37.4506462,-86.8929157
"235","33200900600000","VILLAGE OF OXFORD","NEW YORK",1808,"VILLAGE OF OXFORD","36","33","NEW YORK","NY","017","009","CHENANGO","55948","006",2,42.4411607,-75.5958783
"236","33201800300000","CITY OF JOHNSTOWN","NEW YORK",1808,"CITY OF JOHNSTOWN","36","33","NEW YORK","NY","035","018","FULTON","38781","003",2,43.0073025,-74.3755132
"237","34204100200000","CITY OF GREENSBORO","NORTH CAROLINA",1808,"CITY OF GREENSBORO","37","34","NORTH CAROLINA","NC","081","041","GUILFORD","28000","002",2,36.0956163,-79.8270883
"238","36208501500000","CITY OF WOOSTER","OHIO",1808,"CITY OF WOOSTER","39","36","OHIO","OH","169","085","WAYNE","86548","015",2,40.8170906,-81.933574
"239","39201300200000","BOROUGH OF BOWMANSTOWN","PENNSYLVANIA",1808,"BOROUGH OF BOWMANSTOWN","42","39","PENNSYLVANIA","PA","025","013","CARBON","07880","002",2,40.8019062,-75.6611419
"240","11210400300000","CITY OF MADISON","GEORGIA",1809,"CITY OF MADISON","13","11","GEORGIA","GA","211","104","MORGAN","49196","003",2,33.579278,-83.4757833
"241","18200500200000","CITY OF GLASGOW","KENTUCKY",1809,"CITY OF GLASGOW","21","18","KENTUCKY","KY","009","005","BARREN","31114","002",2,37.0047393,-85.9262665
"242","18207600200000","CITY OF RICHMOND","KENTUCKY",1809,"CITY OF RICHMOND","21","18","KENTUCKY","KY","151","076","MADISON","65226","002",2,37.7305755,-84.2925416
"243","22200800200000","CITY OF EASTHAMPTON TOWN","MASSACHUSETTS",1809,"CITY OF EASTHAMPTON TOWN","25","22","MASSACHUSETTS","MA","015","008","HAMPSHIRE","19370","002",2,42.2651401,-72.6720518
"244","25200300200000","TOWN OF LIBERTY","MISSISSIPPI",1809,"TOWN OF LIBERTY","28","25","MISSISSIPPI","MS","005","003","AMITE","40640","002",2,31.1611268,-90.8006681
"245","26209200400000","CITY OF ST CHARLES","MISSOURI",1809,"CITY OF ST CHARLES","29","26","MISSOURI","MO","183","092","ST CHARLES","64082","004",2,38.7954622,-90.5155756
"246","26209600100000","CITY OF ST LOUIS","MISSOURI",1809,"CITY OF ST LOUIS","29","26","MISSOURI","MO","510","096","ST LOUIS CITY","65000","001",2,38.6358461,-90.245098
"247","33200900200000","VILLAGE OF BAINBRIDGE","NEW YORK",1809,"VILLAGE OF BAINBRIDGE","36","33","NEW YORK","NY","017","009","CHENANGO","04033","002",2,42.2973439,-75.4806797
"248","43202800400000","CITY OF PULASKI","TENNESSEE",1809,"CITY OF PULASKI","47","43","TENNESSEE","TN","055","028","GILES","61040","004",2,35.1932675,-87.0349418
"249","11214900300000","CITY OF WARRENTON","GEORGIA",1810,"CITY OF WARRENTON","13","11","GEORGIA","GA","301","149","WARREN","80592","003",2,33.4067275,-82.6652679
"250","15203100900000","TOWN OF PALMYRA","INDIANA",1810,"TOWN OF PALMYRA","18","15","INDIANA","IN","061","031","HARRISON","57726","009",2,38.4082356,-86.1086257
"251","15204500200000","TOWN OF DYER","INDIANA",1810,"TOWN OF DYER","18","15","INDIANA","IN","089","045","LAKE","19270","002",2,41.4977006,-87.5090346
"252","18205100200000","CITY OF HENDERSON","KENTUCKY",1810,"CITY OF HENDERSON","21","18","KENTUCKY","KY","101","051","HENDERSON","35866","002",2,37.8397335,-87.5797736
"253","33202700200000","VILLAGE OF CAZENOVIA","NEW YORK",1810,"VILLAGE OF CAZENOVIA","36","33","NEW YORK","NY","053","027","MADISON","13145","002",2,42.9279161,-75.8513198
"254","33203601100000","VILLAGE OF MONTGOMERY","NEW YORK",1810,"VILLAGE OF MONTGOMERY","36","33","NEW YORK","NY","071","036","ORANGE","48142","011",2,41.5215924,-74.2387941
"255","36200900100000","CITY OF HAMILTON","OHIO",1810,"CITY OF HAMILTON","39","36","OHIO","OH","017","009","BUTLER","33012","001",2,39.3938368,-84.5652498
"256","39206303100000","CITY OF WASHINGTON","PENNSYLVANIA",1810,"CITY OF WASHINGTON","42","39","PENNSYLVANIA","PA","125","063","WASHINGTON","81328","031",2,40.1741131,-80.2467656
"257","01204500100000","CITY OF HUNTSVILLE","ALABAMA",1811,"CITY OF HUNTSVILLE","01","01","ALABAMA","AL","089","045","MADISON","37000","001",2,34.583517,-86.7982108
"258","18200600100000","CITY OF OWINGSVILLE","KENTUCKY",1811,"CITY OF OWINGSVILLE","21","18","KENTUCKY","KY","011","006","BATH","58710","001",2,38.1363045,-83.7603582
"259","18211300100000","CITY OF MORGANFIELD","KENTUCKY",1811,"CITY OF MORGANFIELD","21","18","KENTUCKY","KY","225","113","UNION","53472","001",2,37.6868205,-87.879704
"260","33200400200000","VILLAGE OF DEPOSIT","NEW YORK",1811,"VILLAGE OF DEPOSIT","36","33","NEW YORK","NY","007","004","BROOME","20346","002",2,42.0634241,-75.4224502
"261","33202200600000","CITY OF LITTLE FALLS","NEW YORK",1811,"CITY OF LITTLE FALLS","36","33","NEW YORK","NY","043","022","HERKIMER","42741","006",2,43.0452231,-74.8565728
"262","36200500200000","VILLAGE OF AMESVILLE","OHIO",1811,"VILLAGE OF AMESVILLE","39","36","OHIO","OH","009","005","ATHENS","01784","002",2,39.4013934,-81.9548674
"263","36200500300000","CITY OF ATHENS","OHIO",1811,"CITY OF ATHENS","39","36","OHIO","OH","009","005","ATHENS","02736","003",2,39.3270073,-82.0988169
"264","36204900100000","CITY OF LONDON","OHIO",1811,"CITY OF LONDON","39","36","OHIO","OH","097","049","MADISON","44674","001",2,39.893577,-83.4376129
"265","39203900200000","CITY OF ALLENTOWN","PENNSYLVANIA",1811,"CITY OF ALLENTOWN","42","39","PENNSYLVANIA","PA","077","039","LEHIGH","02000","002",2,40.5961124,-75.4755647
"266","39205401900000","BOROUGH OF ORWIGSBURG","PENNSYLVANIA",1811,"BOROUGH OF ORWIGSBURG","42","39","PENNSYLVANIA","PA","107","054","SCHUYLKILL","57184","019",2,40.6541668,-76.103989
"267","11208700300000","CITY OF DUBLIN","GEORGIA",1812,"CITY OF DUBLIN","13","11","GEORGIA","GA","175","087","LAURENS","24376","003",2,32.535875,-82.9279775
"268","11215000400000","CITY OF SANDERSVILLE","GEORGIA",1812,"CITY OF SANDERSVILLE","13","11","GEORGIA","GA","303","150","WASHINGTON","68208","004",2,32.9826622,-82.8088496
"269","15203100300000","TOWN OF ELIZABETH","INDIANA",1812,"TOWN OF ELIZABETH","18","15","INDIANA","IN","061","031","HARRISON","20674","003",2,38.1240588,-85.9738551
"270","18203500100000","CITY OF FLEMINGSBURG","KENTUCKY",1812,"CITY OF FLEMINGSBURG","21","18","KENTUCKY","KY","069","035","FLEMING","27856","001",2,38.4236115,-83.7374
"271","18207200100000","CITY OF EDDYVILLE","KENTUCKY",1812,"CITY OF EDDYVILLE","21","18","KENTUCKY","KY","143","072","LYON","23824","001",2,37.0759004,-88.0769994
"272","18211400100000","CITY OF BOWLING GREEN","KENTUCKY",1812,"CITY OF BOWLING GREEN","21","18","KENTUCKY","KY","227","114","WARREN","08902","001",2,36.9715603,-86.4378165
"273","21202400400000","TOWN OF SNOW HILL","MARYLAND",1812,"TOWN OF SNOW HILL","24","21","MARYLAND","MD","047","024","WORCESTER","73075","004",2,38.1728326,-75.3903102
"274","25204600100000","CITY OF COLUMBIA","MISSISSIPPI",1812,"CITY OF COLUMBIA","28","25","MISSISSIPPI","MS","091","046","MARION","15340","001",2,31.2563816,-89.8266029
"275","33203900100000","VILLAGE OF CHERRY VALLEY","NEW YORK",1812,"VILLAGE OF CHERRY VALLEY","36","33","NEW YORK","NY","077","039","OTSEGO","15242","001",2,42.7978117,-74.7506432
"276","33203900200000","VILLAGE OF COOPERSTOWN","NEW YORK",1812,"VILLAGE OF COOPERSTOWN","36","33","NEW YORK","NY","077","039","OTSEGO","18047","002",2,42.6995998,-74.9300301
"277","36200800700000","VILLAGE OF RIPLEY","OHIO",1812,"VILLAGE OF RIPLEY","39","36","OHIO","OH","015","008","BROWN","67272","007",2,38.7324995,-83.8346131
"278","36201300800000","VILLAGE OF NEVILLE","OHIO",1812,"VILLAGE OF NEVILLE","39","36","OHIO","OH","025","013","CLERMONT","53956","008",2,38.8122708,-84.2115254
"279","36204300200000","VILLAGE OF FAIRPORT HARBOR","OHIO",1812,"VILLAGE OF FAIRPORT HARBOR","39","36","OHIO","OH","085","043","LAKE","26306","002",2,41.7476637,-81.273032
"280","36208400400000","VILLAGE OF LOWER SALEM","OHIO",1812,"VILLAGE OF LOWER SALEM","39","36","OHIO","OH","167","084","WASHINGTON","45220","004",2,39.5633837,-81.3942246
"281","39203601200000","BOROUGH OF MARIETTA","PENNSYLVANIA",1812,"BOROUGH OF MARIETTA","42","39","PENNSYLVANIA","PA","071","036","LANCASTER","47424","012",2,40.0573752,-76.5515356
"282","39204601300000","BOROUGH OF NORRISTOWN","PENNSYLVANIA",1812,"BOROUGH OF NORRISTOWN","42","39","PENNSYLVANIA","PA","091","046","MONTGOMERY","54656","013",2,40.1224543,-75.3398353
"283","39206000200000","BOROUGH OF LEWISBURG","PENNSYLVANIA",1812,"BOROUGH OF LEWISBURG","42","39","PENNSYLVANIA","PA","119","060","UNION","42976","002",2,40.9641264,-76.8899576
"284","18201600100000","CITY OF MORGANTOWN","KENTUCKY",1813,"CITY OF MORGANTOWN","21","18","KENTUCKY","KY","031","016","BUTLER","53490","001",2,37.2173188,-86.70009
"285","19200300100000","CITY OF DONALDSONVILLE","LOUISIANA",1813,"CITY OF DONALDSONVILLE","22","19","LOUISIANA","LA","005","003","ASCENSION","21240","001",2,30.0953897,-90.9924956
"286","19206300100000","TOWN OF ST FRANCISVILLE","LOUISIANA",1813,"TOWN OF ST FRANCISVILLE","22","19","LOUISIANA","LA","125","063","WEST FELICIANA","67215","001",2,30.7851859,-91.3787128
"287","21200800700000","TOWN OF PORT DEPOSIT","MARYLAND",1813,"TOWN OF PORT DEPOSIT","24","21","MARYLAND","MD","015","008","CECIL","63075","007",2,39.6111034,-76.0980353
"288","21202200400000","CITY OF HAGERSTOWN","MARYLAND",1813,"CITY OF HAGERSTOWN","24","21","MARYLAND","MD","043","022","WASHINGTON","36075","004",2,39.6401468,-77.7216741
"289","33200400100000","CITY OF BINGHAMTON","NEW YORK",1813,"CITY OF BINGHAMTON","36","33","NEW YORK","NY","007","004","BROOME","06607","001",2,42.1013789,-75.9092651
"290","33201500500000","CITY OF BUFFALO","NEW YORK",1813,"CITY OF BUFFALO","36","33","NEW YORK","NY","029","015","ERIE","11000","005",2,42.8922595,-78.8594294
"291","33203302000000","VILLAGE OF WHITESBORO","NEW YORK",1813,"VILLAGE OF WHITESBORO","36","33","NEW YORK","NY","065","033","ONEIDA","81710","020",2,43.1239849,-75.2966883
"292","33203400900000","VILLAGE OF MANLIUS","NEW YORK",1813,"VILLAGE OF MANLIUS","36","33","NEW YORK","NY","067","034","ONONDAGA","45018","009",2,43.0014378,-75.9822315
"293","36204500800000","VILLAGE OF JOHNSTOWN","OHIO",1813,"VILLAGE OF JOHNSTOWN","39","36","OHIO","OH","089","045","LICKING","39340","008",2,40.1499256,-82.6880574
"294","49204800800000","TOWN OF MIDDLEBOURNE","WEST VIRGINIA",1813,"TOWN OF MIDDLEBOURNE","54","49","WEST VIRGINIA","WV","095","048","TYLER","53572","008",2,39.4945627,-80.9070614
"295","01204900400000","CITY OF MOBILE","ALABAMA",1814,"CITY OF MOBILE","01","01","ALABAMA","AL","097","049","MOBILE","50000","004",2,30.6674032,-88.1010276
"296","14203000700000","CITY OF SHAWNEETOWN","ILLINOIS",1814,"CITY OF SHAWNEETOWN","17","14","ILLINOIS","IL","059","030","GALLATIN","69082","007",2,37.7157866,-88.1865056
"297","15204200700000","CITY OF VINCENNES","INDIANA",1814,"CITY OF VINCENNES","18","15","INDIANA","IN","083","042","KNOX","79208","007",2,38.675929,-87.510159
"298","15206700100000","TOWN OF BAINBRIDGE","INDIANA",1814,"TOWN OF BAINBRIDGE","18","15","INDIANA","IN","133","067","PUTNAM","03142","001",2,39.7613996,-86.8112601
"299","15208900300000","TOWN OF CENTERVILLE","INDIANA",1814,"TOWN OF CENTERVILLE","18","15","INDIANA","IN","177","089","WAYNE","11836","003",2,39.8253987,-84.999018
"300","33202301700000","VILLAGE OF SACKETS HARBOR","NEW YORK",1814,"VILLAGE OF SACKETS HARBOR","36","33","NEW YORK","NY","045","023","JEFFERSON","64408","017",2,43.9417696,-76.1181217
"301","36201300200000","VILLAGE OF BATAVIA","OHIO",1814,"VILLAGE OF BATAVIA","39","36","OHIO","OH","025","013","CLERMONT","04150","002",2,39.0814979,-84.1718586
"302","36201300900000","VILLAGE OF NEW RICHMOND","OHIO",1814,"VILLAGE OF NEW RICHMOND","39","36","OHIO","OH","025","013","CLERMONT","55384","009",2,38.9687759,-84.2866893
"303","36201803900000","CITY OF OLMSTED FALLS","OHIO",1814,"CITY OF OLMSTED FALLS","39","36","OHIO","OH","035","018","CUYAHOGA","58422","039",2,41.365708,-81.9038488
"304","36201901700000","VILLAGE OF VERSAILLES","OHIO",1814,"VILLAGE OF VERSAILLES","39","36","OHIO","OH","037","019","DARKE","79912","017",2,40.2219926,-84.4830224
"305","36204101000000","VILLAGE OF MOUNT PLEASANT","OHIO",1814,"VILLAGE OF MOUNT PLEASANT","39","36","OHIO","OH","081","041","JEFFERSON","52976","010",2,40.1758935,-80.7996538
"306","36205501100000","CITY OF TROY","OHIO",1814,"CITY OF TROY","39","36","OHIO","OH","109","055","MIAMI","77588","011",2,40.04363,-84.21873
"307","36207000300000","VILLAGE OF LEXINGTON","OHIO",1814,"VILLAGE OF LEXINGTON","39","36","OHIO","OH","139","070","RICHLAND","42994","003",2,40.6799549,-82.5793909
"308","36208300300000","CITY OF FRANKLIN","OHIO",1814,"CITY OF FRANKLIN","39","36","OHIO","OH","165","083","WARREN","28476","003",2,39.5537687,-84.2951894
"309","39202900100000","BOROUGH OF MCCONNELLSBURG","PENNSYLVANIA",1814,"BOROUGH OF MCCONNELLSBURG","42","39","PENNSYLVANIA","PA","057","029","FULTON","46000","001",2,39.9320157,-77.9957666
"310","39203600400000","BOROUGH OF COLUMBIA","PENNSYLVANIA",1814,"BOROUGH OF COLUMBIA","42","39","PENNSYLVANIA","PA","071","036","LANCASTER","15384","004",2,40.0346948,-76.4943904
"311","39204300800000","BOROUGH OF MERCER","PENNSYLVANIA",1814,"BOROUGH OF MERCER","42","39","PENNSYLVANIA","PA","085","043","MERCER","48696","008",2,41.2266007,-80.2360312
"312","11213400200000","CITY OF JACKSONVILLE","GEORGIA",1815,"CITY OF JACKSONVILLE","13","11","GEORGIA","GA","271","134","TELFAIR","41708","002",2,31.8125941,-82.9789963
"313","15201500400000","CITY OF LAWRENCEBURG","INDIANA",1815,"CITY OF LAWRENCEBURG","18","15","INDIANA","IN","029","015","DEARBORN","42462","004",2,39.0985949,-84.8712016
"314","15208800700000","CITY OF SALEM","INDIANA",1815,"CITY OF SALEM","18","15","INDIANA","IN","175","088","WASHINGTON","67464","007",2,38.6047801,-86.0977414
"315","18207800100000","CITY OF LEBANON","KENTUCKY",1815,"CITY OF LEBANON","21","18","KENTUCKY","KY","155","078","MARION","44344","001",2,37.5691877,-85.2593488
"316","21200100200000","CITY OF CUMBERLAND","MARYLAND",1815,"CITY OF CUMBERLAND","24","21","MARYLAND","MD","001","001","ALLEGANY","21325","002",2,39.6516076,-78.7582167
"317","33200600100000","CITY OF AUBURN","NEW YORK",1815,"CITY OF AUBURN","36","33","NEW YORK","NY","011","006","CAYUGA","03078","001",2,42.9338366,-76.5684718
"318","33201000500000","CITY OF PLATTSBURGH","NEW YORK",1815,"CITY OF PLATTSBURGH","36","33","NEW YORK","NY","019","010","CLINTON","58574","005",2,44.6950606,-73.4563085
"319","33203500100000","CITY OF CANANDAIGUA","NEW YORK",1815,"CITY OF CANANDAIGUA","36","33","NEW YORK","NY","069","035","ONTARIO","12144","001",2,42.8885114,-77.2804624
"320","36200300300000","VILLAGE OF JEROMESVILLE","OHIO",1815,"VILLAGE OF JEROMESVILLE","39","36","OHIO","OH","005","003","ASHLAND","39060","003",2,40.8039314,-82.1963757
"321","36201400500000","VILLAGE OF NEW VIENNA","OHIO",1815,"VILLAGE OF NEW VIENNA","39","36","OHIO","OH","027","014","CLINTON","55748","005",2,39.3254777,-83.6940905
"322","36201803500000","CITY OF NORTH OLMSTED","OHIO",1815,"CITY OF NORTH OLMSTED","39","36","OHIO","OH","035","018","CUYAHOGA","56882","035",2,41.4149294,-81.9191227
"323","36202300900000","CITY OF PICKERINGTON","OHIO",1815,"CITY OF PICKERINGTON","39","36","OHIO","OH","045","023","FAIRFIELD","62498","009",2,39.8890122,-82.7677372
"324","36203001000000","VILLAGE OF SENECAVILLE","OHIO",1815,"VILLAGE OF SENECAVILLE","39","36","OHIO","OH","059","030","GUERNSEY","71360","010",2,39.9347643,-81.4594621
"325","36204701000000","VILLAGE OF SHEFFIELD","OHIO",1815,"VILLAGE OF SHEFFIELD","39","36","OHIO","OH","093","047","LORAIN","72060","010",2,41.4558841,-82.0911701
"326","36208300700000","CITY OF MASON","OHIO",1815,"CITY OF MASON","39","36","OHIO","OH","165","083","WARREN","48188","007",2,39.3570907,-84.302374
"327","36208301100000","CITY OF SPRINGBORO","OHIO",1815,"CITY OF SPRINGBORO","39","36","OHIO","OH","165","083","WARREN","74076","011",2,39.5614555,-84.2347178
"328","39200601000000","BOROUGH OF KUTZTOWN","PENNSYLVANIA",1815,"BOROUGH OF KUTZTOWN","42","39","PENNSYLVANIA","PA","011","006","BERKS","40656","010",2,40.5212706,-75.7772116
"329","39202600200000","BOROUGH OF BROWNSVILLE","PENNSYLVANIA",1815,"BOROUGH OF BROWNSVILLE","42","39","PENNSYLVANIA","PA","051","026","FAYETTE","09432","002",2,40.0187684,-79.8910867
"330","39204500400000","BOROUGH OF STROUDSBURG","PENNSYLVANIA",1815,"BOROUGH OF STROUDSBURG","42","39","PENNSYLVANIA","PA","089","045","MONROE","74888","004",2,40.9837644,-75.1972377
"331","39204601600000","BOROUGH OF POTTSTOWN","PENNSYLVANIA",1815,"BOROUGH OF POTTSTOWN","42","39","PENNSYLVANIA","PA","091","046","MONTGOMERY","62416","016",2,40.2507752,-75.6444493
"332","39206701300000","BOROUGH OF HANOVER","PENNSYLVANIA",1815,"BOROUGH OF HANOVER","42","39","PENNSYLVANIA","PA","133","067","YORK","32448","013",2,39.8117566,-76.9836047
"333","43203700300000","TOWN OF SURGOINSVILLE","TENNESSEE",1815,"TOWN OF SURGOINSVILLE","47","43","TENNESSEE","TN","073","037","HAWKINS","72380","003",2,36.4744592,-82.859439
"334","49203700200000","CITY OF ST MARYS","WEST VIRGINIA",1815,"CITY OF ST MARYS","54","49","WEST VIRGINIA","WV","073","037","PLEASANTS","71356","002",2,39.391208,-81.2031178
"335","01201300400000","CITY OF JACKSON","ALABAMA",1816,"CITY OF JACKSON","01","01","ALABAMA","AL","025","013","CLARKE","38152","004",2,31.5317852,-87.8915024
"336","11209500100000","CITY OF DARIEN","GEORGIA",1816,"CITY OF DARIEN","13","11","GEORGIA","GA","191","095","MCINTOSH","21716","001",2,31.3567817,-81.4314348
"337","15201500500000","TOWN OF MOORES HILL","INDIANA",1816,"TOWN OF MOORES HILL","18","15","INDIANA","IN","029","015","DEARBORN","50958","005",2,39.1129377,-85.0890582
"338","15203100400000","TOWN OF LACONIA","INDIANA",1816,"TOWN OF LACONIA","18","15","INDIANA","IN","061","031","HARRISON","40644","004",2,38.0318064,-86.0855225
"339","19205200200000","CITY OF COVINGTON","LOUISIANA",1816,"CITY OF COVINGTON","22","19","LOUISIANA","LA","103","052","ST TAMMANY","18125","002",2,30.4809248,-90.1121061
"340","21201100400000","CITY OF FREDERICK","MARYLAND",1816,"CITY OF FREDERICK","24","21","MARYLAND","MD","021","011","FREDERICK","30325","004",2,39.433662,-77.4140106
"341","22201410100000","CITY OF SOUTHBRIDGE TOWN","MASSACHUSETTS",1816,"CITY OF SOUTHBRIDGE TOWN","25","22","MASSACHUSETTS","MA","027","014","WORCESTER","63345","101",2,42.0604341,-72.0337671
"342","33200900400000","VILLAGE OF NEW BERLIN","NEW YORK",1816,"VILLAGE OF NEW BERLIN","36","33","NEW YORK","NY","017","009","CHENANGO","49946","004",2,42.6239831,-75.335317
"343","33202301900000","CITY OF WATERTOWN","NEW YORK",1816,"CITY OF WATERTOWN","36","33","NEW YORK","NY","045","023","JEFFERSON","78608","019",2,43.9734224,-75.9094442
"344","33202700600000","VILLAGE OF HAMILTON","NEW YORK",1816,"VILLAGE OF HAMILTON","36","33","NEW YORK","NY","053","027","MADISON","31709","006",2,42.8290911,-75.5501672
"345","33202700700000","VILLAGE OF MADISON","NEW YORK",1816,"VILLAGE OF MADISON","36","33","NEW YORK","NY","053","027","MADISON","44424","007",2,42.8977413,-75.512291
"346","33204600800000","VILLAGE OF STILLWATER","NEW YORK",1816,"VILLAGE OF STILLWATER","36","33","NEW YORK","NY","091","046","SARATOGA","71322","008",2,42.9468559,-73.643858
"347","33205000300000","VILLAGE OF OVID","NEW YORK",1816,"VILLAGE OF OVID","36","33","NEW YORK","NY","099","050","SENECA","55816","003",2,42.675648,-76.8228967
"348","33205100400000","VILLAGE OF BATH","NEW YORK",1816,"VILLAGE OF BATH","36","33","NEW YORK","NY","101","051","STEUBEN","04759","004",2,42.3362513,-77.3179511
"349","33206001800000","CITY OF PEEKSKILL","NEW YORK",1816,"CITY OF PEEKSKILL","36","33","NEW YORK","NY","119","060","WESTCHESTER","56979","018",2,41.2883815,-73.9226862
"350","34203900200000","CITY OF OXFORD","NORTH CAROLINA",1816,"CITY OF OXFORD","37","34","NORTH CAROLINA","NC","077","039","GRANVILLE","49800","002",2,36.3154543,-78.5848498
"351","36200300500000","VILLAGE OF MIFFLIN","OHIO",1816,"VILLAGE OF MIFFLIN","39","36","OHIO","OH","005","003","ASHLAND","50036","005",2,40.7734614,-82.3638582
"352","36200800100000","VILLAGE OF ABERDEEN","OHIO",1816,"VILLAGE OF ABERDEEN","39","36","OHIO","OH","015","008","BROWN","00142","001",2,38.6711268,-83.7702658
"353","36202100200000","CITY OF DELAWARE","OHIO",1816,"CITY OF DELAWARE","39","36","OHIO","OH","041","021","DELAWARE","21434","002",2,40.2851181,-83.074145
"354","36202100700000","VILLAGE OF SUNBURY","OHIO",1816,"VILLAGE OF SUNBURY","39","36","OHIO","OH","041","021","DELAWARE","75602","007",2,40.2484639,-82.8804416
"355","36205800300000","VILLAGE OF MALTA","OHIO",1816,"VILLAGE OF MALTA","39","36","OHIO","OH","115","058","MORGAN","46970","003",2,39.6516099,-81.8641662
"356","39201000200000","CITY OF BUTLER","PENNSYLVANIA",1816,"CITY OF BUTLER","42","39","PENNSYLVANIA","PA","019","010","BUTLER","10464","002",2,40.8615543,-79.8961702
"357","39203000600000","BOROUGH OF WAYNESBURG","PENNSYLVANIA",1816,"BOROUGH OF WAYNESBURG","42","39","PENNSYLVANIA","PA","059","030","GREENE","81832","006",2,39.8982552,-80.1855367
"358","39203200800000","BOROUGH OF INDIANA","PENNSYLVANIA",1816,"BOROUGH OF INDIANA","42","39","PENNSYLVANIA","PA","063","032","INDIANA","36816","008",2,40.6219896,-79.1552028
"359","39203601800000","BOROUGH OF STRASBURG","PENNSYLVANIA",1816,"BOROUGH OF STRASBURG","42","39","PENNSYLVANIA","PA","071","036","LANCASTER","74712","018",2,39.9832003,-76.1847749
"360","41202000200000","TOWN OF WINNSBORO","SOUTH CAROLINA",1816,"TOWN OF WINNSBORO","45","41","SOUTH CAROLINA","SC","039","020","FAIRFIELD","78460","002",2,34.3718235,-81.090657
"361","47203100300000","TOWN OF WARRENTON","VIRGINIA",1816,"TOWN OF WARRENTON","51","47","VIRGINIA","VA","061","031","FAUQUIER","83136","003",2,38.717543,-77.7975524
"362","49201700100000","CITY OF BRIDGEPORT","WEST VIRGINIA",1816,"CITY OF BRIDGEPORT","54","49","WEST VIRGINIA","WV","033","017","HARRISON","10180","001",2,39.3035991,-80.2477473
"363","11209000100000","CITY OF LINCOLNTON","GEORGIA",1817,"CITY OF LINCOLNTON","13","11","GEORGIA","GA","181","090","LINCOLN","46552","001",2,33.7930918,-82.4776542
"364","11209700400000","CITY OF DANIELSVILLE","GEORGIA",1817,"CITY OF DANIELSVILLE","13","11","GEORGIA","GA","195","097","MADISON","21632","004",2,34.1237198,-83.2200686
"365","15202600700000","TOWN OF OWENSVILLE","INDIANA",1817,"TOWN OF OWENSVILLE","18","15","INDIANA","IN","051","026","GIBSON","57528","007",2,38.2719,-87.691775
"366","15203100100000","TOWN OF CORYDON","INDIANA",1817,"TOWN OF CORYDON","18","15","INDIANA","IN","061","031","HARRISON","15256","001",2,38.2128657,-86.1255646
"367","15203100500000","TOWN OF LANESVILLE","INDIANA",1817,"TOWN OF LANESVILLE","18","15","INDIANA","IN","061","031","HARRISON","42048","005",2,38.2394057,-85.9821005
"368","15205800100000","CITY OF RISING SUN","INDIANA",1817,"CITY OF RISING SUN","18","15","INDIANA","IN","115","058","OHIO","64674","001",2,38.9531094,-84.8543474
"369","15206500100000","TOWN OF CYNTHIANA","INDIANA",1817,"TOWN OF CYNTHIANA","18","15","INDIANA","IN","129","065","POSEY","16534","001",2,38.1872577,-87.7085299
"370","18200200100000","CITY OF SCOTTSVILLE","KENTUCKY",1817,"CITY OF SCOTTSVILLE","21","18","KENTUCKY","KY","003","002","ALLEN","69114","001",2,36.7543544,-86.2051701
"371","19201700200000","CITY-PARISH OF BATON ROUGE-EAST BATON ROUGE","LOUISIANA",1817,"CITY-PARISH OF BATON ROUGE-EAST BATON ROUGE","22","19","LOUISIANA","LA","033","017","EAST BATON ROUGE","05000","002",2,30.4419898,-91.1310733
"372","19205000300000","CITY OF ST MARTINVILLE","LOUISIANA",1817,"CITY OF ST MARTINVILLE","22","19","LOUISIANA","LA","099","050","ST MARTIN","67600","003",2,30.1263202,-91.8318883
"373","19205200300000","TOWN OF MADISONVILLE","LOUISIANA",1817,"TOWN OF MADISONVILLE","22","19","LOUISIANA","LA","103","052","ST TAMMANY","47560","003",2,30.4003394,-90.1652886
"374","33202800800000","CITY OF ROCHESTER","NEW YORK",1817,"CITY OF ROCHESTER","36","33","NEW YORK","NY","055","028","MONROE","63000","008",2,43.168875,-77.6159259
"375","33204501000000","CITY OF OGDENSBURG","NEW YORK",1817,"CITY OF OGDENSBURG","36","33","NEW YORK","NY","089","045","ST LAWRENCE","54485","010",2,44.7087697,-75.4717838
"376","36202900800000","CITY OF XENIA","OHIO",1817,"CITY OF XENIA","39","36","OHIO","OH","057","029","GREENE","86772","008",2,39.6828652,-83.9413859
"377","36203102200000","CITY OF MOUNT HEALTHY","OHIO",1817,"CITY OF MOUNT HEALTHY","39","36","OHIO","OH","061","031","HAMILTON","52752","022",2,39.2337721,-84.5467357
"378","36205800200000","VILLAGE OF MCCONNELSVILLE","OHIO",1817,"VILLAGE OF MCCONNELSVILLE","39","36","OHIO","OH","115","058","MORGAN","45822","002",2,39.6567685,-81.8467196
"379","36206800500000","VILLAGE OF GRATIS","OHIO",1817,"VILLAGE OF GRATIS","39","36","OHIO","OH","135","068","PREBLE","31472","005",2,39.6484698,-84.5285879
"380","36207400800000","CITY OF TIFFIN","OHIO",1817,"CITY OF TIFFIN","39","36","OHIO","OH","147","074","SENECA","76778","008",2,41.1164644,-83.1804742
"381","36208500800000","VILLAGE OF MARSHALLVILLE","OHIO",1817,"VILLAGE OF MARSHALLVILLE","39","36","OHIO","OH","169","085","WAYNE","48048","008",2,40.8996288,-81.7329292
"382","39202100800000","BOROUGH OF NEWVILLE","PENNSYLVANIA",1817,"BOROUGH OF NEWVILLE","42","39","PENNSYLVANIA","PA","041","021","CUMBERLAND","54320","008",2,40.1701878,-77.4014715
"383","39202100900000","BOROUGH OF SHIPPENSBURG","PENNSYLVANIA",1817,"BOROUGH OF SHIPPENSBURG","42","39","PENNSYLVANIA","PA","041","021","CUMBERLAND","70352","009",2,40.0484046,-77.522782
"384","39204900500000","BOROUGH OF MILTON","PENNSYLVANIA",1817,"BOROUGH OF MILTON","42","39","PENNSYLVANIA","PA","097","049","NORTHUMBERLAND","50016","005",2,41.0086835,-76.8507373
"385","43206000100000","CITY OF COLUMBIA","TENNESSEE",1817,"CITY OF COLUMBIA","47","43","TENNESSEE","TN","119","060","MAURY","16540","001",2,35.6236918,-87.0484756
"386","01204200200000","CITY OF ATHENS","ALABAMA",1818,"CITY OF ATHENS","01","01","ALABAMA","AL","083","042","LIMESTONE","02956","002",2,34.7842733,-86.9503465
"387","01204200400000","TOWN OF MOORESVILLE","ALABAMA",1818,"TOWN OF MOORESVILLE","01","01","ALABAMA","AL","083","042","LIMESTONE","51264","004",2,34.6256387,-86.8802974
"388","08200301200000","CITY OF LEWES","DELAWARE",1818,"CITY OF LEWES","10","08","DELAWARE","DE","005","003","SUSSEX","41830","012",2,38.7789588,-75.1452538
"389","14200200100000","CITY OF CAIRO","ILLINOIS",1818,"CITY OF CAIRO","17","14","ILLINOIS","IL","003","002","ALEXANDER","10383","001",2,37.0061378,-89.1819451
"390","15201060100000","TOWN OF UTICA","INDIANA",1818,"TOWN OF UTICA","18","15","INDIANA","IN","019","010","CLARK","78110","601",2,38.3380418,-85.6558897
"391","15202600900000","CITY OF PRINCETON","INDIANA",1818,"CITY OF PRINCETON","18","15","INDIANA","IN","051","026","GIBSON","62046","009",2,38.355306,-87.5784526
"392","18210200300000","CITY OF MOUNT VERNON","KENTUCKY",1818,"CITY OF MOUNT VERNON","21","18","KENTUCKY","KY","203","102","ROCKCASTLE","54174","003",2,37.3521408,-84.3348535
"393","19204000100000","CITY OF ALEXANDRIA","LOUISIANA",1818,"CITY OF ALEXANDRIA","22","19","LOUISIANA","LA","079","040","RAPIDES","00975","001",2,31.2922844,-92.4701834
"394","34206600400000","TOWN OF JACKSON","NORTH CAROLINA",1818,"TOWN OF JACKSON","37","34","NORTH CAROLINA","NC","131","066","NORTHAMPTON","34000","004",2,36.3900955,-77.4193407
"395","34206700200000","CITY OF JACKSONVILLE","NORTH CAROLINA",1818,"CITY OF JACKSONVILLE","37","34","NORTH CAROLINA","NC","133","067","ONSLOW","34200","002",2,34.7288481,-77.3940729
"396","36201805100000","CITY OF STRONGSVILLE","OHIO",1818,"CITY OF STRONGSVILLE","39","36","OHIO","OH","035","018","CUYAHOGA","75098","051",2,41.3127859,-81.83132
"397","36203100500000","CITY OF CHEVIOT","OHIO",1818,"CITY OF CHEVIOT","39","36","OHIO","OH","061","031","HAMILTON","14128","005",2,39.1576549,-84.6139076
"398","36206800600000","VILLAGE OF LEWISBURG","OHIO",1818,"VILLAGE OF LEWISBURG","39","36","OHIO","OH","135","068","PREBLE","42938","006",2,39.8506442,-84.5434647
"399","39201900200000","BOROUGH OF BERWICK","PENNSYLVANIA",1818,"BOROUGH OF BERWICK","42","39","PENNSYLVANIA","PA","037","019","COLUMBIA","05888","002",2,41.0554878,-76.2492477
"400","39202800600000","BOROUGH OF WAYNESBORO","PENNSYLVANIA",1818,"BOROUGH OF WAYNESBORO","42","39","PENNSYLVANIA","PA","055","028","FRANKLIN","81824","006",2,39.7524553,-77.5821911
"401","46201200400000","CITY OF MONTPELIER","VERMONT",1818,"CITY OF MONTPELIER","50","46","VERMONT","VT","023","012","WASHINGTON","46000","004",2,44.265916,-72.5717266
"402","49201700900000","TOWN OF WEST MILFORD","WEST VIRGINIA",1818,"TOWN OF WEST MILFORD","54","49","WEST VIRGINIA","WV","033","017","HARRISON","85924","009",2,39.2044445,-80.40338
"403","01201300100000","TOWN OF COFFEEVILLE","ALABAMA",1819,"TOWN OF COFFEEVILLE","01","01","ALABAMA","AL","025","013","CLARKE","16264","001",2,31.7665657,-88.0860499
"404","01203000400000","CITY OF RUSSELLVILLE","ALABAMA",1819,"CITY OF RUSSELLVILLE","01","01","ALABAMA","AL","059","030","FRANKLIN","67056","004",2,34.5055176,-87.7282751
"405","01204000300000","CITY OF MOULTON","ALABAMA",1819,"CITY OF MOULTON","01","01","ALABAMA","AL","079","040","LAWRENCE","51600","003",2,34.4843697,-87.283125
"406","01204570100000","TOWN OF TRIANA","ALABAMA",1819,"TOWN OF TRIANA","01","01","ALABAMA","AL","089","045","MADISON","76824","701",2,34.5888265,-86.7489274
"407","01205100100000","CITY OF MONTGOMERY","ALABAMA",1819,"CITY OF MONTGOMERY","01","01","ALABAMA","AL","101","051","MONTGOMERY","51000","001",2,32.3481495,-86.2667561
"408","01206300200000","CITY OF TUSCALOOSA","ALABAMA",1819,"CITY OF TUSCALOOSA","01","01","ALABAMA","AL","125","063","TUSCALOOSA","77256","002",2,33.235209,-87.5269459
"409","11201600200000","TOWN OF PORTAL","GEORGIA",1819,"TOWN OF PORTAL","13","11","GEORGIA","GA","031","016","BULLOCH","62216","002",2,32.5381904,-81.929695
"410","14206000600000","CITY OF EDWARDSVILLE","ILLINOIS",1819,"CITY OF EDWARDSVILLE","17","14","ILLINOIS","IL","119","060","MADISON","22697","006",2,38.7922417,-89.9874734
"411","14208200200000","CITY OF BELLEVILLE","ILLINOIS",1819,"CITY OF BELLEVILLE","17","14","ILLINOIS","IL","163","082","ST CLAIR","04845","002",2,38.5164979,-89.9900556
"412","14209700200000","CITY OF CARMI","ILLINOIS",1819,"CITY OF CARMI","17","14","ILLINOIS","IL","193","097","WHITE","11293","002",2,38.0861506,-88.1719974
"413","18200900200000","CITY OF NORTH MIDDLETOWN","KENTUCKY",1819,"CITY OF NORTH MIDDLETOWN","21","18","KENTUCKY","KY","017","009","BOURBON","56820","002",2,38.1425369,-84.1102016
"414","18209000200000","CITY OF BLOOMFIELD","KENTUCKY",1819,"CITY OF BLOOMFIELD","21","18","KENTUCKY","KY","179","090","NELSON","07516","002",2,37.9121972,-85.3139718
"415","26205700700000","CITY OF TROY","MISSOURI",1819,"CITY OF TROY","29","26","MISSOURI","MO","113","057","LINCOLN","73942","007",2,38.9707966,-90.9714836
"416","26211100100000","VILLAGE OF CALEDONIA","MISSOURI",1819,"VILLAGE OF CALEDONIA","29","26","MISSOURI","MO","221","111","WASHINGTON","10432","001",2,37.7647714,-90.7723537
"417","26211200100000","CITY OF GREENVILLE","MISSOURI",1819,"CITY OF GREENVILLE","29","26","MISSOURI","MO","223","112","WAYNE","29476","001",2,37.128379,-90.4472258
"418","33202700800000","VILLAGE OF MORRISVILLE","NEW YORK",1819,"VILLAGE OF MORRISVILLE","36","33","NEW YORK","NY","053","027","MADISON","48593","008",2,42.8986988,-75.6447553
"419","33203301400000","CITY OF ROME","NEW YORK",1819,"CITY OF ROME","36","33","NEW YORK","NY","065","033","ONEIDA","63418","014",2,43.2259763,-75.49089
"420","33204200300000","VILLAGE OF NASSAU","NEW YORK",1819,"VILLAGE OF NASSAU","36","33","NEW YORK","NY","083","042","RENSSELAER","49506","003",2,42.5139632,-73.6107496
"421","33205202200000","VILLAGE OF SAG HARBOR","NEW YORK",1819,"VILLAGE OF SAG HARBOR","36","33","NEW YORK","NY","103","052","SUFFOLK","64485","022",2,40.9971202,-72.2891926
"422","33205900500000","VILLAGE OF PALMYRA","NEW YORK",1819,"VILLAGE OF PALMYRA","36","33","NEW YORK","NY","117","059","WAYNE","56187","005",2,43.0608639,-77.2297191
"423","34206800200000","TOWN OF CHAPEL HILL","NORTH CAROLINA",1819,"TOWN OF CHAPEL HILL","37","34","NORTH CAROLINA","NC","135","068","ORANGE","11800","002",2,35.9270611,-79.0390576
"424","36200800300000","VILLAGE OF GEORGETOWN","OHIO",1819,"VILLAGE OF GEORGETOWN","39","36","OHIO","OH","015","008","BROWN","29778","003",2,38.8683397,-83.8992516
"425","36203100600000","CITY OF CINCINNATI","OHIO",1819,"CITY OF CINCINNATI","39","36","OHIO","OH","061","031","HAMILTON","15000","006",2,39.1412087,-84.5060223
"426","39205601900000","BOROUGH OF STOYSTOWN","PENNSYLVANIA",1819,"BOROUGH OF STOYSTOWN","42","39","PENNSYLVANIA","PA","111","056","SOMERSET","74672","019",2,40.1032153,-78.9545584
"427","43200200300000","CITY OF SHELBYVILLE","TENNESSEE",1819,"CITY OF SHELBYVILLE","47","43","TENNESSEE","TN","003","002","BEDFORD","67760","003",2,35.4986665,-86.451672
"428","43205200100000","CITY OF FAYETTEVILLE","TENNESSEE",1819,"CITY OF FAYETTEVILLE","47","43","TENNESSEE","TN","103","052","LINCOLN","25920","001",2,35.1489644,-86.5634755
"429","01201700600000","CITY OF TUSCUMBIA","ALABAMA",1820,"CITY OF TUSCUMBIA","01","01","ALABAMA","AL","033","017","COLBERT","77280","006",2,34.7203499,-87.7035118
"430","01202400200000","CITY OF SELMA","ALABAMA",1820,"CITY OF SELMA","01","01","ALABAMA","AL","047","024","DALLAS","69120","002",2,32.4165971,-87.0335894
"431","18210700100000","CITY OF FRANKLIN","KENTUCKY",1820,"CITY OF FRANKLIN","21","18","KENTUCKY","KY","213","107","SIMPSON","28918","001",2,36.7175227,-86.5595705
"432","19203700100000","CITY OF MONROE","LOUISIANA",1820,"CITY OF MONROE","22","19","LOUISIANA","LA","073","037","OUACHITA","51410","001",2,32.5185382,-92.0773404
"433","19205100300000","CITY OF FRANKLIN","LOUISIANA",1820,"CITY OF FRANKLIN","22","19","LOUISIANA","LA","101","051","ST MARY","27155","003",2,29.7850574,-91.509775
"434","26209800100000","TOWN OF ARROW ROCK","MISSOURI",1820,"TOWN OF ARROW ROCK","29","26","MISSOURI","MO","195","098","SALINE","02044","001",2,39.07,-92.9472467
"435","33205800300000","VILLAGE OF FORT ANN","NEW YORK",1820,"VILLAGE OF FORT ANN","36","33","NEW YORK","NY","115","058","WASHINGTON","26704","003",2,43.4146432,-73.4906794
"436","33205800900000","VILLAGE OF WHITEHALL","NEW YORK",1820,"VILLAGE OF WHITEHALL","36","33","NEW YORK","NY","115","058","WASHINGTON","81622","009",2,43.5549597,-73.4221567
"437","36201804900000","CITY OF SOLON","OHIO",1820,"CITY OF SOLON","39","36","OHIO","OH","035","018","CUYAHOGA","72928","049",2,41.3864652,-81.4400152
"438","36205400800000","VILLAGE OF ROCKFORD","OHIO",1820,"VILLAGE OF ROCKFORD","39","36","OHIO","OH","107","054","MERCER","67874","008",2,40.6911537,-84.6497161
"439","39200400800000","BOROUGH OF DARLINGTON","PENNSYLVANIA",1820,"BOROUGH OF DARLINGTON","42","39","PENNSYLVANIA","PA","007","004","BEAVER","18192","008",2,40.810291,-80.4233884
"440","41201300100000","TOWN OF CHERAW","SOUTH CAROLINA",1820,"TOWN OF CHERAW","45","41","SOUTH CAROLINA","SC","025","013","CHESTERFIELD","13600","001",2,34.6955541,-79.9084199
"441","49205400100000","CITY OF PARKERSBURG","WEST VIRGINIA",1820,"CITY OF PARKERSBURG","54","49","WEST VIRGINIA","WV","107","054","WOOD","62140","001",2,39.2623337,-81.5418779
"442","01203600200000","TOWN OF HOLLYWOOD","ALABAMA",1821,"TOWN OF HOLLYWOOD","01","01","ALABAMA","AL","071","036","JACKSON","35632","002",2,34.7195251,-85.9640857
"443","01204600200000","CITY OF DEMOPOLIS","ALABAMA",1821,"CITY OF DEMOPOLIS","01","01","ALABAMA","AL","091","046","MARENGO","20296","002",2,32.4980232,-87.8298166
"444","11206700500000","CITY OF LAWRENCEVILLE","GEORGIA",1821,"CITY OF LAWRENCEVILLE","13","11","GEORGIA","GA","135","067","GWINNETT","45488","005",2,33.9522363,-83.9932122
"445","11206900300000","CITY OF GAINESVILLE","GEORGIA",1821,"CITY OF GAINESVILLE","13","11","GEORGIA","GA","139","069","HALL","31908","003",2,34.2901611,-83.8294875
"446","11214700300000","CITY OF MONROE","GEORGIA",1821,"CITY OF MONROE","13","11","GEORGIA","GA","297","147","WALTON","52192","003",2,33.7989791,-83.7159548
"447","14202600700000","CITY OF VANDALIA","ILLINOIS",1821,"CITY OF VANDALIA","17","14","ILLINOIS","IL","051","026","FAYETTE","77317","007",2,38.9753512,-89.1116788
"448","14206000200000","CITY OF ALTON","ILLINOIS",1821,"CITY OF ALTON","17","14","ILLINOIS","IL","119","060","MADISON","01114","002",2,38.903697,-90.1520575
"449","15204900800000","CITY OF INDIANAPOLIS","INDIANA",1821,"CITY OF INDIANAPOLIS","18","15","INDIANA","IN","097","049","MARION","36003","008",2,39.7778261,-86.145737
"450","18200600300000","CITY OF SHARPSBURG","KENTUCKY",1821,"CITY OF SHARPSBURG","21","18","KENTUCKY","KY","011","006","BATH","69852","003",2,38.2017673,-83.927929
"451","21200800400000","TOWN OF ELKTON","MARYLAND",1821,"TOWN OF ELKTON","24","21","MARYLAND","MD","015","008","CECIL","25800","004",2,39.6066286,-75.82098
"452","26205700400000","CITY OF MOSCOW MILLS","MISSOURI",1821,"CITY OF MOSCOW MILLS","29","26","MISSOURI","MO","113","057","LINCOLN","50204","004",2,38.9401126,-90.9253945
"453","33201300200000","VILLAGE OF DELHI","NEW YORK",1821,"VILLAGE OF DELHI","36","33","NEW YORK","NY","025","013","DELAWARE","20126","002",2,42.2784693,-74.9150069
"454","33205500500000","CITY OF ITHACA","NEW YORK",1821,"CITY OF ITHACA","36","33","NEW YORK","NY","109","055","TOMPKINS","38077","005",2,42.4441287,-76.5031751
"455","36203100700000","VILLAGE OF CLEVES","OHIO",1821,"VILLAGE OF CLEVES","39","36","OHIO","OH","061","031","HAMILTON","16028","007",2,39.1635038,-84.7468094
"456","39200300900000","BOROUGH OF KITTANNING","PENNSYLVANIA",1821,"BOROUGH OF KITTANNING","42","39","PENNSYLVANIA","PA","005","003","ARMSTRONG","40040","009",2,40.8238248,-79.5266792
"457","39203800400000","CITY OF LEBANON","PENNSYLVANIA",1821,"CITY OF LEBANON","42","39","PENNSYLVANIA","PA","075","038","LEBANON","42168","004",2,40.3411925,-76.4227344
"458","39206400100000","BOROUGH OF BETHANY","PENNSYLVANIA",1821,"BOROUGH OF BETHANY","42","39","PENNSYLVANIA","PA","127","064","WAYNE","05976","001",2,41.614323,-75.2872391
"459","43202600500000","CITY OF WINCHESTER","TENNESSEE",1821,"CITY OF WINCHESTER","47","43","TENNESSEE","TN","051","026","FRANKLIN","81080","005",2,35.189846,-86.1075961
"460","47201200200000","TOWN OF FINCASTLE","VIRGINIA",1821,"TOWN OF FINCASTLE","51","47","VIRGINIA","VA","023","012","BOTETOURT","27824","002",2,37.5004957,-79.8749491
"461","47205900300000","TOWN OF CLARKSVILLE","VIRGINIA",1821,"TOWN OF CLARKSVILLE","51","47","VIRGINIA","VA","117","059","MECKLENBURG","16992","003",2,36.617204,-78.5638794
"462","01205800100000","CITY OF ASHVILLE","ALABAMA",1822,"CITY OF ASHVILLE","01","01","ALABAMA","AL","115","058","ST CLAIR","02908","001",2,33.8331116,-86.2697803
"463","10201700100000","CITY OF PENSACOLA","FLORIDA",1822,"CITY OF PENSACOLA","12","10","FLORIDA","FL","033","017","ESCAMBIA","55925","001",2,30.4412361,-87.1910984
"464","10205500200000","CITY OF ST AUGUSTINE","FLORIDA",1822,"CITY OF ST AUGUSTINE","12","10","FLORIDA","FL","109","055","ST JOHNS","62500","002",2,29.8976186,-81.3100199
"465","11210700100000","CITY OF COVINGTON","GEORGIA",1822,"CITY OF COVINGTON","13","11","GEORGIA","GA","217","107","NEWTON","20064","001",2,33.6048589,-83.8463983
"466","15201500100000","CITY OF AURORA","INDIANA",1822,"CITY OF AURORA","18","15","INDIANA","IN","029","015","DEARBORN","02782","001",2,39.0677146,-84.9046188
"467","18211100100000","CITY OF CADIZ","KENTUCKY",1822,"CITY OF CADIZ","21","18","KENTUCKY","KY","221","111","TRIGG","11692","001",2,36.8678019,-87.7874785
"468","22201300100000","CITY OF BOSTON","MASSACHUSETTS",1822,"CITY OF BOSTON","25","22","MASSACHUSETTS","MA","025","013","SUFFOLK","07000","001",2,42.3322325,-71.0163903
"469","25204400300000","CITY OF COLUMBUS","MISSISSIPPI",1822,"CITY OF COLUMBUS","28","25","MISSISSIPPI","MS","087","044","LOWNDES","15380","003",2,33.5088052,-88.4096014
"470","26210900200000","TOWN OF HARWOOD","MISSOURI",1822,"TOWN OF HARWOOD","29","26","MISSOURI","MO","217","109","VERNON","30862","002",2,37.9566828,-94.1539338
"471","33203200200000","VILLAGE OF LEWISTON","NEW YORK",1822,"VILLAGE OF LEWISTON","36","33","NEW YORK","NY","063","032","NIAGARA","42147","002",2,43.1723709,-79.0399825
"472","36201700100000","CITY OF BUCYRUS","OHIO",1822,"CITY OF BUCYRUS","39","36","OHIO","OH","033","017","CRAWFORD","10030","001",2,40.8053726,-82.9718558
"473","36208100800000","VILLAGE OF WILLSHIRE","OHIO",1822,"VILLAGE OF WILLSHIRE","39","36","OHIO","OH","161","081","VAN WERT","85736","008",2,40.7465658,-84.7924467
"474","49205400300000","CITY OF WILLIAMSTOWN","WEST VIRGINIA",1822,"CITY OF WILLIAMSTOWN","54","49","WEST VIRGINIA","WV","107","054","WOOD","87556","003",2,39.3986704,-81.4549858
"475","11201100100000","COUNTY OF MACON-BIBB","GEORGIA",1823,"COUNTY OF MACON-BIBB","13","11","GEORGIA","GA","021","011","BIBB","49008","001",2,32.8064982,-83.69742
"476","11204400400000","CITY OF DECATUR","GEORGIA",1823,"CITY OF DECATUR","13","11","GEORGIA","GA","089","044","DEKALB","22052","004",2,33.7710279,-84.2961709
"477","11205600100000","CITY OF FAYETTEVILLE","GEORGIA",1823,"CITY OF FAYETTEVILLE","13","11","GEORGIA","GA","113","056","FAYETTE","28968","001",2,33.4500083,-84.4709541
"478","11206800300000","CITY OF CLARKESVILLE","GEORGIA",1823,"CITY OF CLARKESVILLE","13","11","GEORGIA","GA","137","068","HABERSHAM","16460","003",2,34.6102137,-83.5283245
"479","11207500300000","CITY OF MCDONOUGH","GEORGIA",1823,"CITY OF MCDONOUGH","13","11","GEORGIA","GA","151","075","HENRY","48624","003",2,32.0635929,-82.8969033
"480","11210200200000","CITY OF FORSYTH","GEORGIA",1823,"CITY OF FORSYTH","13","11","GEORGIA","GA","207","102","MONROE","30732","002",2,33.035302,-83.9390326
"481","21200600200000","TOWN OF FEDERALSBURG","MARYLAND",1823,"TOWN OF FEDERALSBURG","24","21","MARYLAND","MD","011","006","CAROLINE","27900","002",2,38.6928503,-75.7727304
"482","21202200900000","TOWN OF WILLIAMSPORT","MARYLAND",1823,"TOWN OF WILLIAMSPORT","24","21","MARYLAND","MD","043","022","WASHINGTON","85100","009",2,39.5973448,-77.8179712
"483","26208200100000","CITY OF BOWLING GREEN","MISSOURI",1823,"CITY OF BOWLING GREEN","29","26","MISSOURI","MO","163","082","PIKE","07660","001",2,39.3446679,-91.203149
"484","33201900200000","CITY OF BATAVIA","NEW YORK",1823,"CITY OF BATAVIA","36","33","NEW YORK","NY","037","019","GENESEE","04715","002",2,42.9986993,-78.18023
"485","36205500700000","CITY OF PIQUA","OHIO",1823,"CITY OF PIQUA","39","36","OHIO","OH","109","055","MIAMI","62848","007",2,40.1505279,-84.2440042
"486","39202000900000","CITY OF MEADVILLE","PENNSYLVANIA",1823,"CITY OF MEADVILLE","42","39","PENNSYLVANIA","PA","039","020","CRAWFORD","48360","009",2,41.6475703,-80.1468103
"487","39206303400000","BOROUGH OF WEST MIDDLETOWN","PENNSYLVANIA",1823,"BOROUGH OF WEST MIDDLETOWN","42","39","PENNSYLVANIA","PA","125","063","WASHINGTON","83504","034",2,40.2432037,-80.4252781
"488","07200100300000","BOROUGH OF NEWTOWN","CONNECTICUT",1824,"BOROUGH OF NEWTOWN","09","07","CONNECTICUT","CT","001","001","FAIRFIELD","52910","003",2,41.4118973,-73.3119499
"489","11207600100000","CITY OF PERRY","GEORGIA",1824,"CITY OF PERRY","13","11","GEORGIA","GA","153","076","HOUSTON","60340","001",2,32.4719358,-83.7283121
"490","15203900300000","CITY OF MADISON","INDIANA",1824,"CITY OF MADISON","18","15","INDIANA","IN","077","039","JEFFERSON","45990","003",2,38.7581158,-85.3972123
"491","21201100300000","TOWN OF EMMITSBURG","MARYLAND",1824,"TOWN OF EMMITSBURG","24","21","MARYLAND","MD","021","011","FREDERICK","26200","003",2,39.7051358,-77.3217482
"492","26201680200000","TOWN OF OLD APPLETON","MISSOURI",1824,"TOWN OF OLD APPLETON","29","26","MISSOURI","MO","031","016","CAPE GIRARDEAU","54200","802",2,37.5939071,-89.7107051
"493","33205000500000","VILLAGE OF WATERLOO","NEW YORK",1824,"VILLAGE OF WATERLOO","36","33","NEW YORK","NY","099","050","SENECA","78553","005",2,42.9048525,-76.8592312
"494","36202200700000","CITY OF SANDUSKY","OHIO",1824,"CITY OF SANDUSKY","39","36","OHIO","OH","043","022","ERIE","70380","007",2,41.4564793,-82.7143052
"495","39203200100000","BOROUGH OF ARMAGH","PENNSYLVANIA",1824,"BOROUGH OF ARMAGH","42","39","PENNSYLVANIA","PA","063","032","INDIANA","03032","001",2,40.4536319,-79.0324513
"496","39205800800000","BOROUGH OF MONTROSE","PENNSYLVANIA",1824,"BOROUGH OF MONTROSE","42","39","PENNSYLVANIA","PA","115","058","SUSQUEHANNA","50736","008",2,41.8334407,-75.8760918
"497","43203900100000","CITY OF LEXINGTON","TENNESSEE",1824,"CITY OF LEXINGTON","47","43","TENNESSEE","TN","077","039","HENDERSON","41980","001",2,35.6157466,-88.3743365
"498","43206000200000","CITY OF MOUNT PLEASANT","TENNESSEE",1824,"CITY OF MOUNT PLEASANT","47","43","TENNESSEE","TN","119","060","MAURY","51080","002",2,35.5483612,-87.1871958
"499","10203700100000","CITY OF TALLAHASSEE","FLORIDA",1825,"CITY OF TALLAHASSEE","12","10","FLORIDA","FL","073","037","LEON","70600","001",2,30.4551212,-84.2526538
"500","10204500300000","CITY OF FERNANDINA BEACH","FLORIDA",1825,"CITY OF FERNANDINA BEACH","12","10","FLORIDA","FL","089","045","NASSAU","22175","003",2,30.657278,-81.4514332
"501","11211400500000","CITY OF ZEBULON","GEORGIA",1825,"CITY OF ZEBULON","13","11","GEORGIA","GA","231","114","PIKE","85128","005",2,33.093083,-84.3426372
"502","14209300400000","CITY OF MOUNT CARMEL","ILLINOIS",1825,"CITY OF MOUNT CARMEL","17","14","ILLINOIS","IL","185","093","WABASH","50868","004",2,38.4187056,-87.7694006
"503","26202600300000","CITY OF JEFFERSON CITY","MISSOURI",1825,"CITY OF JEFFERSON CITY","29","26","MISSOURI","MO","051","026","COLE","37000","003",2,38.5676455,-92.1759359
"504","31200300200000","CITY OF BORDENTOWN","NEW JERSEY",1825,"CITY OF BORDENTOWN","34","31","NEW JERSEY","NJ","005","003","BURLINGTON","06670","002",2,40.1493871,-74.7083511
"505","33202600800000","VILLAGE OF MOUNT MORRIS","NEW YORK",1825,"VILLAGE OF MOUNT MORRIS","36","33","NEW YORK","NY","051","026","LIVINGSTON","48945","008",2,42.7236961,-77.8752073
"506","33203401500000","CITY OF SYRACUSE","NEW YORK",1825,"CITY OF SYRACUSE","36","33","NEW YORK","NY","067","034","ONONDAGA","73000","015",2,43.0406862,-76.1437243
"507","33204501400000","VILLAGE OF WADDINGTON","NEW YORK",1825,"VILLAGE OF WADDINGTON","36","33","NEW YORK","NY","089","045","ST LAWRENCE","77728","014",2,44.859135,-75.1968795
"508","36201500600000","VILLAGE OF LISBON","OHIO",1825,"VILLAGE OF LISBON","39","36","OHIO","OH","029","015","COLUMBIANA","44030","006",2,40.7751339,-80.7627718
"509","36204700600000","VILLAGE OF LAGRANGE","OHIO",1825,"VILLAGE OF LAGRANGE","39","36","OHIO","OH","093","047","LORAIN","41230","006",2,41.2403882,-82.11749
"510","39201101100000","BOROUGH OF EBENSBURG","PENNSYLVANIA",1825,"BOROUGH OF EBENSBURG","42","39","PENNSYLVANIA","PA","021","011","CAMBRIA","22144","011",2,40.4883932,-78.7263639
"511","39203200200000","BOROUGH OF BLAIRSVILLE","PENNSYLVANIA",1825,"BOROUGH OF BLAIRSVILLE","42","39","PENNSYLVANIA","PA","063","032","INDIANA","06904","002",2,40.4324907,-79.2598811
"512","39203700500000","CITY OF NEW CASTLE","PENNSYLVANIA",1825,"CITY OF NEW CASTLE","42","39","PENNSYLVANIA","PA","073","037","LAWRENCE","53368","005",2,40.9956289,-80.3458325
"513","43205000100000","CITY OF LAWRENCEBURG","TENNESSEE",1825,"CITY OF LAWRENCEBURG","47","43","TENNESSEE","TN","099","050","LAWRENCE","41340","001",2,35.2497164,-87.3324979
"514","49201900100000","TOWN OF BOLIVAR","WEST VIRGINIA",1825,"TOWN OF BOLIVAR","54","49","WEST VIRGINIA","WV","037","019","JEFFERSON","08932","001",2,39.3242093,-77.7517258
"515","01203701200000","CITY OF HOMEWOOD","ALABAMA",1826,"CITY OF HOMEWOOD","01","01","ALABAMA","AL","073","037","JEFFERSON","35800","012",2,33.4619402,-86.8089849
"516","01203900100000","CITY OF FLORENCE","ALABAMA",1826,"CITY OF FLORENCE","01","01","ALABAMA","AL","077","039","LAUDERDALE","26896","001",2,34.8303494,-87.6654194
"517","08200100800000","TOWN OF FREDERICA","DELAWARE",1826,"TOWN OF FREDERICA","10","08","DELAWARE","DE","001","001","KENT","28440","008",2,39.0080043,-75.4665989
"518","11201800200000","CITY OF JACKSON","GEORGIA",1826,"CITY OF JACKSON","13","11","GEORGIA","GA","035","018","BUTTS","41596","002",2,33.2919444,-83.9678653
"519","11207200200000","CITY OF HAMILTON","GEORGIA",1826,"CITY OF HAMILTON","13","11","GEORGIA","GA","145","072","HARRIS","36220","002",2,32.7646725,-84.8752612
"520","11213100100000","CITY OF CRAWFORDVILLE","GEORGIA",1826,"CITY OF CRAWFORDVILLE","13","11","GEORGIA","GA","265","131","TALIAFERRO","20316","001",2,33.554532,-82.8965468
"521","18209300100000","CITY OF LA GRANGE","KENTUCKY",1826,"CITY OF LA GRANGE","21","18","KENTUCKY","KY","185","093","OLDHAM","43480","001",2,38.3986638,-85.375015
"522","18210400100000","CITY OF JAMESTOWN","KENTUCKY",1826,"CITY OF JAMESTOWN","21","18","KENTUCKY","KY","207","104","RUSSELL","40114","001",2,36.9894185,-85.0661158
"523","21200600400000","TOWN OF GREENSBORO","MARYLAND",1826,"TOWN OF GREENSBORO","24","21","MARYLAND","MD","011","006","CAROLINE","35200","004",2,38.976354,-75.8080756
"524","26201000300000","CITY OF COLUMBIA","MISSOURI",1826,"CITY OF COLUMBIA","29","26","MISSOURI","MO","019","010","BOONE","15670","003",2,38.9471842,-92.3268374
"525","26211100400000","CITY OF POTOSI","MISSOURI",1826,"CITY OF POTOSI","29","26","MISSOURI","MO","221","111","WASHINGTON","59330","004",2,37.9337392,-90.7750341
"526","31200300700000","BOROUGH OF PEMBERTON","NEW JERSEY",1826,"BOROUGH OF PEMBERTON","34","31","NEW JERSEY","NJ","005","003","BURLINGTON","57480","007",2,39.9714009,-74.685845
"527","36201802100000","VILLAGE OF GATES MILLS","OHIO",1826,"VILLAGE OF GATES MILLS","39","36","OHIO","OH","035","018","CUYAHOGA","29498","021",2,41.5315356,-81.409981
"528","36204501000000","CITY OF NEWARK","OHIO",1826,"CITY OF NEWARK","39","36","OHIO","OH","089","045","LICKING","54040","010",2,40.0705899,-82.4249995
"529","39204100300000","BOROUGH OF JERSEY SHORE","PENNSYLVANIA",1826,"BOROUGH OF JERSEY SHORE","42","39","PENNSYLVANIA","PA","081","041","LYCOMING","38128","003",2,41.2012079,-77.2666686
"530","39204100600000","BOROUGH OF MUNCY","PENNSYLVANIA",1826,"BOROUGH OF MUNCY","42","39","PENNSYLVANIA","PA","081","041","LYCOMING","52264","006",2,41.2021614,-76.7855074
"531","41201500500000","CITY OF WALTERBORO","SOUTH CAROLINA",1826,"CITY OF WALTERBORO","45","41","SOUTH CAROLINA","SC","029","015","COLLETON","74275","005",2,32.9009287,-80.6759413
"532","43207900500000","CITY OF MEMPHIS","TENNESSEE",1826,"CITY OF MEMPHIS","47","43","TENNESSEE","TN","157","079","SHELBY","48000","005",2,35.108794,-89.9663012
"533","43208400300000","CITY OF COVINGTON","TENNESSEE",1826,"CITY OF COVINGTON","47","43","TENNESSEE","TN","167","084","TIPTON","17680","003",2,35.5660062,-89.6482119
"534","49200400400000","TOWN OF SUTTON","WEST VIRGINIA",1826,"TOWN OF SUTTON","54","49","WEST VIRGINIA","WV","007","004","BRAXTON","78580","004",2,38.666313,-80.711534
"535","01200500100000","TOWN OF BLOUNTSVILLE","ALABAMA",1827,"TOWN OF BLOUNTSVILLE","01","01","ALABAMA","AL","009","005","BLOUNT","07456","001",2,34.0814026,-86.5867597
"536","15201300500000","TOWN OF MILLTOWN","INDIANA",1827,"TOWN OF MILLTOWN","18","15","INDIANA","IN","025","013","CRAWFORD","49716","005",2,38.3421326,-86.2754481
"537","15203100600000","TOWN OF MAUCKPORT","INDIANA",1827,"TOWN OF MAUCKPORT","18","15","INDIANA","IN","061","031","HARRISON","47628","006",2,38.0259463,-86.1997449
"538","15208900500000","TOWN OF EAST GERMANTOWN","INDIANA",1827,"TOWN OF EAST GERMANTOWN","18","15","INDIANA","IN","177","089","WAYNE","19756","005",2,39.8131627,-85.1370248
"539","18206800200000","CITY OF VANCEBURG","KENTUCKY",1827,"CITY OF VANCEBURG","21","18","KENTUCKY","KY","135","068","LEWIS","79068","002",2,38.5943433,-83.3244997
"540","21202100400000","TOWN OF TRAPPE","MARYLAND",1827,"TOWN OF TRAPPE","24","21","MARYLAND","MD","041","021","TALBOT","78575","004",2,38.6634394,-76.0517844
"541","23205800500000","CITY OF MONROE","MICHIGAN",1827,"CITY OF MONROE","26","23","MICHIGAN","MI","115","058","MONROE","55020","005",2,41.9154633,-83.3848975
"542","26206200100000","CITY OF FREDERICKTOWN","MISSOURI",1827,"CITY OF FREDERICKTOWN","29","26","MISSOURI","MO","123","062","MADISON","25768","001",2,37.5643628,-90.2987671
"543","26208900800000","CITY OF RICHMOND","MISSOURI",1827,"CITY OF RICHMOND","29","26","MISSOURI","MO","177","089","RAY","61670","008",2,39.2754808,-93.9729826
"544","33200701000000","CITY OF JAMESTOWN","NEW YORK",1827,"CITY OF JAMESTOWN","36","33","NEW YORK","NY","013","007","CHAUTAUQUA","38264","010",2,42.0976152,-79.2366975
"545","33202800700000","VILLAGE OF PITTSFORD","NEW YORK",1827,"VILLAGE OF PITTSFORD","36","33","NEW YORK","NY","055","028","MONROE","58354","007",2,43.0900888,-77.5166156
"546","33203301800000","VILLAGE OF VERNON","NEW YORK",1827,"VILLAGE OF VERNON","36","33","NEW YORK","NY","065","033","ONEIDA","77112","018",2,43.0793527,-75.5387122
"547","33203901100000","VILLAGE OF UNADILLA","NEW YORK",1827,"VILLAGE OF UNADILLA","36","33","NEW YORK","NY","077","039","OTSEGO","76001","011",2,42.3272946,-75.3155098
"548","33204200100000","VILLAGE OF CASTLETON ON HUDSON","NEW YORK",1827,"VILLAGE OF CASTLETON ON HUDSON","36","33","NEW YORK","NY","083","042","RENSSELAER","12870","001",2,42.5331888,-73.7491034
"549","33204200200000","VILLAGE OF HOOSICK FALLS","NEW YORK",1827,"VILLAGE OF HOOSICK FALLS","36","33","NEW YORK","NY","083","042","RENSSELAER","35474","002",2,42.9009071,-73.349968
"550","33205202600000","VILLAGE OF BRANCH","NEW YORK",1827,"VILLAGE OF BRANCH","36","33","NEW YORK","NY","103","052","SUFFOLK","77519","026",2,40.8523362,-73.1843778
"551","33205400400000","VILLAGE OF OWEGO","NEW YORK",1827,"VILLAGE OF OWEGO","36","33","NEW YORK","NY","107","054","TIOGA","55882","004",2,42.1043141,-76.2628172
"552","39200700900000","BOROUGH OF WILLIAMSBURG","PENNSYLVANIA",1827,"BOROUGH OF WILLIAMSBURG","42","39","PENNSYLVANIA","PA","013","007","BLAIR","85272","009",2,40.46298,-78.2049426
"553","39203000400000","BOROUGH OF JEFFERSON","PENNSYLVANIA",1827,"BOROUGH OF JEFFERSON","42","39","PENNSYLVANIA","PA","059","030","GREENE","37880","004",2,39.9304502,-80.0577125
"554","39203100100000","BOROUGH OF ALEXANDRIA","PENNSYLVANIA",1827,"BOROUGH OF ALEXANDRIA","42","39","PENNSYLVANIA","PA","061","031","HUNTINGDON","00756","001",2,40.5582826,-78.0996836
"555","39205500400000","BOROUGH OF SELINSGROVE","PENNSYLVANIA",1827,"BOROUGH OF SELINSGROVE","42","39","PENNSYLVANIA","PA","109","055","SNYDER","69216","004",2,40.8002356,-76.8646252
"556","39206000300000","BOROUGH OF MIFFLINBURG","PENNSYLVANIA",1827,"BOROUGH OF MIFFLINBURG","42","39","PENNSYLVANIA","PA","119","060","UNION","49288","003",2,40.920149,-77.046339
"557","43203500100000","CITY OF BOLIVAR","TENNESSEE",1827,"CITY OF BOLIVAR","47","43","TENNESSEE","TN","069","035","HARDEMAN","07180","001",2,35.264591,-89.0117916
"558","43209200100000","TOWN OF DRESDEN","TENNESSEE",1827,"TOWN OF DRESDEN","47","43","TENNESSEE","TN","183","092","WEAKLEY","21540","001",2,36.2789601,-88.6939454
"559","50206700200000","VILLAGE OF GERMANTOWN","WISCONSIN",1827,"VILLAGE OF GERMANTOWN","55","50","WISCONSIN","WI","131","067","WASHINGTON","28875","002",2,43.2342612,-88.121725
"560","01204000100000","TOWN OF COURTLAND","ALABAMA",1828,"TOWN OF COURTLAND","01","01","ALABAMA","AL","079","040","LAWRENCE","18040","001",2,34.6703781,-87.3263496
"561","10202000500000","CITY OF QUINCY","FLORIDA",1828,"CITY OF QUINCY","12","10","FLORIDA","FL","039","020","GADSDEN","59325","005",2,30.5659881,-84.5858447
"562","10204400100000","CITY OF KEY WEST","FLORIDA",1828,"CITY OF KEY WEST","12","10","FLORIDA","FL","087","044","MONROE","36550","001",2,24.5640886,-81.7767782
"563","11203800400000","CITY OF NEWNAN","GEORGIA",1828,"CITY OF NEWNAN","13","11","GEORGIA","GA","077","038","COWETA","55020","004",2,33.3766906,-84.7761052
"564","11209900200000","CITY OF GREENVILLE","GEORGIA",1828,"CITY OF GREENVILLE","13","11","GEORGIA","GA","199","099","MERIWETHER","35016","002",2,33.0322407,-84.7162216
"565","11210600200000","CONSOLIDATED GOVERNMENT OF COLUMBUS","GEORGIA",1828,"CONSOLIDATED GOVERNMENT OF COLUMBUS","13","11","GEORGIA","GA","215","106","MUSCOGEE","19000","002",2,32.5099584,-84.877043
"566","11213000300000","CITY OF TALBOTTON","GEORGIA",1828,"CITY OF TALBOTTON","13","11","GEORGIA","GA","263","130","TALBOT","75244","003",2,32.6772683,-84.5405937
"567","11214100200000","CITY OF LAGRANGE","GEORGIA",1828,"CITY OF LAGRANGE","13","11","GEORGIA","GA","285","141","TROUP","44340","002",2,33.0273443,-85.0383855
"568","11214100300000","CITY OF WEST POINT","GEORGIA",1828,"CITY OF WEST POINT","13","11","GEORGIA","GA","285","141","TROUP","82132","003",2,32.8936598,-85.1453456
"569","15203000200000","CITY OF GREENFIELD","INDIANA",1828,"CITY OF GREENFIELD","18","15","INDIANA","IN","059","030","HANCOCK","29520","002",2,39.7936746,-85.7737395
"570","15204601000000","TOWN OF TRAIL CREEK","INDIANA",1828,"TOWN OF TRAIL CREEK","18","15","INDIANA","IN","091","046","LAPORTE","76328","010",2,41.6962565,-86.8555172
"571","15207300100000","TOWN OF MORRISTOWN","INDIANA",1828,"TOWN OF MORRISTOWN","18","15","INDIANA","IN","145","073","SHELBY","51192","001",2,39.6737951,-85.7050485
"572","15208900600000","TOWN OF ECONOMY","INDIANA",1828,"TOWN OF ECONOMY","18","15","INDIANA","IN","177","089","WAYNE","20152","006",2,39.9772963,-85.0868458
"573","18203100100000","CITY OF BROWNSVILLE","KENTUCKY",1828,"CITY OF BROWNSVILLE","21","18","KENTUCKY","KY","061","031","EDMONSON","10324","001",2,37.1951702,-86.2690742
"574","18205601400000","METRO GOVERNMENT OF LOUISVILLE-JEFFERSON COUNTY","KENTUCKY",1828,"METRO GOVERNMENT OF LOUISVILLE-JEFFERSON COUNTY","21","18","KENTUCKY","KY","111","056","JEFFERSON","48003","014",2,38.209237,-85.7038502
"575","18209400300000","CITY OF OWENTON","KENTUCKY",1828,"CITY OF OWENTON","21","18","KENTUCKY","KY","187","094","OWEN","58692","003",2,38.5385322,-84.8409061
"576","31200400700000","CITY OF CAMDEN","NEW JERSEY",1828,"CITY OF CAMDEN","34","31","NEW JERSEY","NJ","007","004","CAMDEN","10000","007",2,39.9361416,-75.1073325
"577","33200800100000","CITY OF ELMIRA","NEW YORK",1828,"CITY OF ELMIRA","36","33","NEW YORK","NY","015","008","CHEMUNG","24229","001",2,42.0937983,-76.8096953
"578","33202300500000","VILLAGE OF BROWNVILLE","NEW YORK",1828,"VILLAGE OF BROWNVILLE","36","33","NEW YORK","NY","045","023","JEFFERSON","10231","005",2,44.0056344,-75.9834416
"579","33203700100000","VILLAGE OF ALBION","NEW YORK",1828,"VILLAGE OF ALBION","36","33","NEW YORK","NY","073","037","ORLEANS","01033","001",2,43.2460242,-78.1901997
"580","33203800800000","CITY OF OSWEGO","NEW YORK",1828,"CITY OF OSWEGO","36","33","NEW YORK","NY","075","038","OSWEGO","55574","008",2,43.4585629,-76.5036137
"581","34202900200000","CITY OF LEXINGTON","NORTH CAROLINA",1828,"CITY OF LEXINGTON","37","34","NORTH CAROLINA","NC","057","029","DAVIDSON","38060","002",2,35.8017585,-80.2681976
"582","34204000300000","TOWN OF SNOW HILL","NORTH CAROLINA",1828,"TOWN OF SNOW HILL","37","34","NORTH CAROLINA","NC","079","040","GREENE","62760","003",2,35.4505286,-77.6767813
"583","36201400800000","CITY OF WILMINGTON","OHIO",1828,"CITY OF WILMINGTON","39","36","OHIO","OH","027","014","CLINTON","85792","008",2,39.4362198,-83.8139964
"584","36203900600000","CITY OF NORWALK","OHIO",1828,"CITY OF NORWALK","39","36","OHIO","OH","077","039","HURON","57302","006",2,41.2443498,-82.6088393
"585","36206200600000","CITY OF PORT CLINTON","OHIO",1828,"CITY OF PORT CLINTON","39","36","OHIO","OH","123","062","OTTAWA","64150","006",2,41.5097111,-82.938414
"586","36207000500000","CITY OF MANSFIELD","OHIO",1828,"CITY OF MANSFIELD","39","36","OHIO","OH","139","070","RICHLAND","47138","005",2,40.7656386,-82.5274834
